nom;population;plus60ans;pct_15_29;pct_30_44;pct_45_59;pct_maison;pct_appartement;revenuMedian;tauxProprietaires;region;zoneChalandise;departement;lat;lon;score
APREMONT;400;34.5;15.0;15.1;20.9;88;12;25600;68;FRANCHE-COMTE;422;70;47.3925481381;5.52972879286;89
SALBRIS;5700;34.8;13.7;20.4;24.8;80;20;24900;68;CENTRE;446;41;47.4134591452;2.04499057381;89
SAINT-JUERY;200;34.4;15.0;21.0;20.6;90;10;25800;66;MIDI-PYRENEES;432;12;43.9242584641;2.69629046616;89
AVESNELLES;2500;35.0;17.5;21.2;21.7;87;13;25400;66;NORD-PAS-DE-CALAIS;426;59;50.1056589526;3.95096845588;89
SAINT-DENIS-DES-COUDRAIS;100;34.9;16.4;21.8;20.6;85;15;25400;67;PAYS DE LA LOIRE;445;72;48.1620373195;0.506879313638;89
LINIERES-BOUTON;100;34.8;17.3;20.1;22.8;84;16;25500;69;PAYS DE LA LOIRE;411;49;47.4501636334;0.0666355358883;88
VILLERS-CAMPSART;100;35.0;17.5;15.2;24.3;86;14;24200;68;PICARDIE;441;80;49.8698144741;1.83537806495;88
NONANCOURT;2200;34.4;13.1;21.1;20.2;85;15;24600;69;HAUTE-NORMANDIE;448;27;48.7770036234;1.17931073126;88
TREMAUVILLE;100;34.1;12.9;17.6;23.5;89;11;25200;64;HAUTE-NORMANDIE;425;76;49.6649596837;0.521421339648;88
SAINT-ANDRE-DE-L'EURE;3400;34.1;15.2;15.1;22.6;85;15;25600;67;HAUTE-NORMANDIE;443;27;48.9026554238;1.27831847187;88
CHEMILLA;100;34.8;15.6;18.5;23.6;88;12;24500;65;FRANCHE-COMTE;421;39;46.3507935799;5.55838223354;88
BOERSCH;2400;34.7;14.5;21.0;22.5;82;18;24600;67;ALSACE;427;67;48.4664860323;7.37505113728;88
DALHAIN;100;34.5;17.9;15.1;23.9;78;22;24900;65;LORRAINE;425;57;48.8880803541;6.56448695773;88
COULONGES-THOUARSAIS;400;34.2;12.3;16.3;23.7;78;22;25300;67;POITOU-CHARENTES;428;79;46.9231412518;-0.332982472624;88
SAINT-MARTIN-DU-TERTRE;2500;34.7;16.0;17.2;23.7;87;13;25300;66;ILE-DE-FRANCE;411;95;49.1039330244;2.33445740142;88
BOTZ-EN-MAUGES;800;33.5;14.8;18.8;22.2;79;21;25700;66;PAYS DE LA LOIRE;446;49;47.3084852544;-0.996148047252;88
FERRIERES-LES-SCEY;200;34.9;13.5;20.0;21.4;74;26;25300;65;FRANCHE-COMTE;434;70;47.6601846416;6.00409146195;88
REMILLY-EN-MONTAGNE;100;34.9;17.9;16.3;20.7;87;13;24200;64;BOURGOGNE;426;21;47.29010269;4.72932529701;88
SERE-EN-LAVEDAN;100;34.0;16.7;20.3;23.4;89;11;25800;67;MIDI-PYRENEES;447;65;43.0198406053;-0.128367115293;88
ANGOMONT;100;34.3;13.0;20.0;23.1;79;21;25300;66;LORRAINE;419;54;48.504868026;6.97199355795;88
LE FUGERET;200;33.7;16.6;21.6;20.7;88;12;25300;68;PROVENCE-ALPES-COTE D'AZUR;420;04;44.0145000822;6.66560747142;88
YOUX;1000;35.0;15.7;19.0;20.1;79;21;24500;66;AUVERGNE;418;63;46.1408722674;2.8044100996;88
VIEILLE-EGLISE;1300;34.7;12.2;17.8;22.8;88;12;25300;63;NORD-PAS-DE-CALAIS;415;62;50.9332624726;2.07653957537;88
LACHAPELLE-SOUS-GERBEROY;200;34.3;13.4;19.0;23.0;85;15;25400;67;PICARDIE;444;60;49.5415853366;1.87591010386;88
LUNEVILLE;19900;34.3;16.6;20.3;20.3;72;28;25100;66;LORRAINE;428;54;48.5920244663;6.49810324732;88
SAINT-ANDRE-DES-EAUX;5300;34.8;12.8;15.3;24.6;79;21;25400;60;PAYS DE LA LOIRE;446;44;47.3234376088;-2.31269060612;88
ROUGEMONT;200;34.5;12.9;20.6;21.4;89;11;25700;68;BOURGOGNE;410;21;47.670003344;4.25730473718;88
LE FOLGOET;3000;34.5;13.1;18.7;24.1;82;18;25700;64;BRETAGNE;418;29;48.5666216124;-4.35251906312;88
SAINT-JULIEN-SUR-REYSSOUZE;600;34.8;13.6;20.1;20.9;88;12;25600;60;RHONE-ALPES;430;01;46.3997655501;5.10354296019;88
EPINEAU-LES-VOVES;700;33.9;13.0;16.0;24.5;85;15;25000;65;BOURGOGNE;441;89;47.9468458779;3.46998413292;88
NOTRE-DAME-DE-SANILHAC;3000;34.8;15.0;20.5;22.2;86;14;25200;64;AQUITAINE;410;24;45.1273768173;0.712740186269;88
FRUGIERES-LE-PIN;100;34.6;13.7;15.2;24.6;82;18;24400;69;AUVERGNE;430;43;45.2712815558;3.49959793979;88
RAULHAC;300;34.6;12.8;16.7;22.9;84;16;25000;62;AUVERGNE;434;15;44.9019840026;2.65720291985;88
BAYENGHEM-LES-EPERLECQUES;900;34.8;12.1;17.6;20.1;86;14;24400;63;NORD-PAS-DE-CALAIS;431;62;50.8060919083;2.11581614167;88
YTRES;400;34.5;17.0;16.0;23.0;88;12;24900;67;NORD-PAS-DE-CALAIS;422;62;50.0647969783;2.99626975733;88
SAINT-GENIES-DE-COMOLAS;1800;34.1;17.8;15.2;22.2;81;19;25500;62;LANGUEDOC-ROUSSILLON;431;30;44.0657349298;4.73124185894;88
BEAUFORT;600;34.1;12.6;16.3;23.4;87;13;24800;68;RHONE-ALPES;430;38;45.3294079707;5.11631301221;88
BIARNE;400;34.7;16.6;16.6;24.5;86;14;25900;63;FRANCHE-COMTE;412;39;47.1454413505;5.45151056819;88
SAINT-JEAN-DU-DOIGT;600;34.6;14.0;21.8;21.9;87;13;25500;61;BRETAGNE;441;29;48.6703251838;-3.76283111411;88
FIX-SAINT-GENEYS;100;34.6;13.9;16.5;20.6;82;18;24900;66;AUVERGNE;430;43;45.1415144345;3.66508807208;88
FERREUX-QUINCEY;300;33.8;13.3;18.4;20.3;82;18;25900;69;CHAMPAGNE-ARDENNE;422;10;48.4624429856;3.60107070347;88
SEDZE-MAUBECQ;200;34.6;15.1;19.3;20.2;90;10;25400;69;AQUITAINE;441;64;43.3560996127;-0.120159115391;88
BOISLEUX-SAINT-MARC;200;34.5;18.0;16.5;23.9;83;17;25000;64;NORD-PAS-DE-CALAIS;423;62;50.212910679;2.79651597969;88
BERCLOUX;400;34.4;16.1;21.4;20.8;86;14;25500;62;POITOU-CHARENTES;418;17;45.8393523202;-0.459046739442;88
SAINTE-MARIE;700;34.9;15.7;16.5;22.7;76;24;25900;66;FRANCHE-COMTE;411;25;47.5016165362;6.69552545899;88
SEYCHALLES;600;33.8;13.8;19.0;22.3;90;10;25900;67;AUVERGNE;417;63;45.8064341619;3.33651456543;88
LANSAC;100;34.0;13.5;20.1;24.5;84;16;26000;59;LANGUEDOC-ROUSSILLON;427;66;42.768061594;2.56512635708;87
BORT-LES-ORGUES;3100;34.9;12.2;15.5;24.2;77;23;23300;69;LIMOUSIN;437;19;45.3932255345;2.49171563604;87
GARCHES;18300;34.7;15.6;15.9;21.1;78;22;24700;61;ILE-DE-FRANCE;405;92;48.8450113548;2.18665007789;87
PIOGGIOLA;100;34.2;16.4;17.5;23.1;90;10;25700;59;CORSE;430;2B;42.5232293967;8.97529988566;87
VALONNE;200;34.4;17.6;15.8;22.0;88;12;24500;64;FRANCHE-COMTE;436;25;47.3423640011;6.66820326069;87
LE HAMEL;500;33.3;16.4;19.5;23.8;85;15;25300;69;PICARDIE;427;80;49.8958798781;2.57277507788;87
FRAYSSINHES;200;34.7;13.1;16.3;22.1;82;18;25000;60;MIDI-PYRENEES;430;46;44.8726104417;1.94132532683;87
BRANSLES;500;33.7;16.2;21.7;22.2;76;24;25700;63;ILE-DE-FRANCE;429;77;48.1490796752;2.82814445347;87
LAHAYVILLE;0;33.0;14.8;19.3;20.6;85;15;25800;64;LORRAINE;431;55;48.8922156555;5.76968506389;87
LESPOURCY;200;34.9;12.1;15.9;24.2;87;13;24800;66;AQUITAINE;399;64;43.3596787562;-0.154631315094;87
MOREAC;3700;33.4;12.3;20.1;22.0;85;15;24000;65;BRETAGNE;421;56;47.9328057263;-2.80381737947;87
LE BREUIL-BERNARD;500;33.6;15.8;17.1;20.4;76;24;25300;69;POITOU-CHARENTES;428;79;46.7138106631;-0.556791561272;87
CONDOM-D'AUBRAC;300;34.9;14.0;19.0;21.4;85;15;23600;64;MIDI-PYRENEES;424;12;44.6054295973;2.88073175235;87
SAINT-PRIEST-LA-PLAINE;300;34.6;14.0;21.8;21.9;79;21;25400;66;LIMOUSIN;407;23;46.2038557137;1.6315718964;87
CHELLES;500;32.8;17.5;16.1;20.4;81;19;25500;64;PICARDIE;426;60;49.3466662796;3.03951779948;87
AUXON;1000;34.7;12.5;19.4;20.1;82;18;24900;68;CHAMPAGNE-ARDENNE;409;10;48.0923181622;3.92346188322;87
BRUCH;800;34.9;15.3;15.5;22.1;88;12;23000;64;AQUITAINE;434;47;44.20662795;0.405442754423;87
SAINT-JEAN-D'ASSE;1400;34.0;16.3;18.7;22.0;78;22;24100;66;PAYS DE LA LOIRE;430;72;48.158356786;0.121471172036;87
SORNAC;800;34.9;14.4;17.3;21.1;83;17;23000;67;LIMOUSIN;434;19;45.6694408619;2.18045644477;87
SUS-SAINT-LEGER;300;33.6;13.6;17.2;21.0;85;15;24600;65;NORD-PAS-DE-CALAIS;443;62;50.2394092727;2.43472712358;87
CHAMPVANS;1400;33.2;14.8;15.4;20.4;90;10;24600;67;FRANCHE-COMTE;438;39;47.1021842612;5.42048711833;87
SAINT-BROING;100;33.4;12.8;20.1;21.2;78;22;25600;67;FRANCHE-COMTE;423;70;47.4552363284;5.67975286287;87
GRANDCHAMP;100;34.7;12.4;20.5;20.5;77;23;25700;58;CHAMPAGNE-ARDENNE;423;52;47.7230166407;5.44612862714;87
MANOIS;500;34.9;14.2;20.8;21.8;78;22;23500;63;CHAMPAGNE-ARDENNE;429;52;48.2657522932;5.37467760517;87
GUAGNO;200;33.5;17.5;20.7;22.6;74;26;25900;65;CORSE;437;2A;42.1783646694;8.98389627863;87
FORSTHEIM;600;34.5;15.0;21.0;23.4;83;17;24400;63;ALSACE;431;67;48.8959541759;7.71097392643;87
SAINT-ROMAIN-LACHALM;1000;34.2;16.9;20.3;22.7;79;21;25800;66;AUVERGNE;408;43;45.2650235989;4.33989066795;87
MONTABON;800;33.2;17.4;21.4;21.3;87;13;25400;68;PAYS DE LA LOIRE;415;72;47.679959995;0.393423951615;87
MONTESQUIEU;800;34.0;13.1;20.2;21.3;80;20;23800;69;MIDI-PYRENEES;429;82;44.1792539863;1.06193133749;87
METZERESCHE;800;34.2;17.5;17.0;20.8;82;18;25500;59;LORRAINE;419;57;49.2949941385;6.30743995125;87
SAINT-JULIEN-EN-BEAUCHENE;100;35.0;16.6;21.4;24.2;82;18;25000;58;PROVENCE-ALPES-COTE D'AZUR;417;05;44.6264570637;5.71979975938;87
VILLEFRANCHE-DU-QUEYRAN;400;33.2;12.9;15.6;24.0;80;20;25900;62;AQUITAINE;427;47;44.3035817658;0.212075905878;87
SAINT-FOLQUIN;2200;33.8;15.6;19.0;21.3;78;22;25100;65;NORD-PAS-DE-CALAIS;443;62;50.9379112392;2.12543329678;87
LE MESNIL-DURDENT;0;34.7;15.3;19.3;24.4;82;18;23600;64;HAUTE-NORMANDIE;430;76;49.81771542;0.771137757772;87
INGRANDES;1800;34.7;14.0;18.8;24.7;73;27;25400;65;POITOU-CHARENTES;422;86;46.8739924084;0.59309229474;87
LANDRECOURT-LEMPIRE;200;34.7;15.0;21.3;22.2;75;25;25400;66;LORRAINE;415;55;49.0991326551;5.32989005207;87
SAINT-AUBIN-LES-FORGES;400;34.3;12.8;18.3;21.9;86;14;24600;66;BOURGOGNE;412;58;47.1430333562;3.18841485018;87
LE BUISSON-DE-CADOUIN;2100;34.8;15.6;18.5;22.8;89;11;24600;61;AQUITAINE;415;24;44.8209697046;0.890058168742;87
PLOGASTEL-SAINT-GERMAIN;1800;34.6;13.0;15.6;20.9;83;17;25900;55;BRETAGNE;436;29;47.9772934585;-4.26371081296;87
LACAPELLE-LIVRON;200;33.1;16.3;20.5;20.1;82;18;24600;68;MIDI-PYRENEES;431;82;44.2719783963;1.79012954535;87
MONTBRON;2200;34.8;15.8;19.1;22.7;78;22;24200;62;POITOU-CHARENTES;418;16;45.667656871;0.504316384558;87
BARINQUE;600;35.0;14.3;19.6;20.6;73;27;24200;67;AQUITAINE;434;64;43.4040350013;-0.269781784045;87
SAINT-LEON-SUR-L'ISLE;2000;34.7;13.9;16.5;23.8;90;10;23200;68;AQUITAINE;438;24;45.1169557791;0.49957697448;87
LE SOURN;2000;33.6;16.8;21.4;22.0;80;20;25100;67;BRETAGNE;410;56;48.0382214758;-2.99470821094;87
COMBRAILLES;200;34.8;15.9;15.1;22.5;89;11;22500;67;AUVERGNE;447;63;45.8408553955;2.64157782279;87
MAURENS-SCOPONT;200;34.9;12.4;18.6;21.8;73;27;25500;63;MIDI-PYRENEES;432;81;43.5965308671;1.81343450611;87
ESSEY;200;34.4;13.8;21.0;24.9;88;12;24100;65;BOURGOGNE;446;21;47.2063506091;4.52226390582;87
LAVANS-LES-SAINT-CLAUDE;1900;33.2;13.5;15.5;20.4;86;14;24300;67;FRANCHE-COMTE;423;39;46.3901726307;5.77719970471;87
SAINTE-MARIE-EN-CHANOIS;200;34.8;17.4;17.4;23.5;71;29;25700;63;FRANCHE-COMTE;426;70;47.8381487494;6.52006378078;87
BRUAY-SUR-L'ESCAUT;12200;34.8;12.5;18.0;24.1;87;13;24600;56;NORD-PAS-DE-CALAIS;429;59;50.3973093421;3.53909152804;87
CHAZELET;100;34.9;17.5;18.0;23.5;84;16;25600;67;CENTRE;395;36;46.5082146993;1.43370852289;87
BRAIZE;300;34.9;16.4;21.0;23.6;78;22;25700;60;AUVERGNE;417;03;46.658636225;2.65427484498;87
LA HOUSSAYE-EN-BRIE;1600;34.9;14.0;21.2;20.6;84;16;25300;63;ILE-DE-FRANCE;409;77;48.756188625;2.86795216078;87
SAINT-MEDARD-D'EYRANS;2700;34.9;14.9;16.3;24.6;87;13;22400;65;AQUITAINE;426;33;44.7113116565;-0.509379859547;87
CESSEY;300;34.5;14.4;16.3;23.5;77;23;24200;69;FRANCHE-COMTE;442;25;47.1132588738;5.92330961673;87
VILLERS-DEVANT-MOUZON;100;34.7;13.2;21.7;21.0;80;20;24700;61;CHAMPAGNE-ARDENNE;430;08;49.6273486226;5.01783217122;87
SAINT-NIZIER-DU-MOUCHEROTTE;1000;34.0;12.6;19.7;21.9;77;23;24300;65;RHONE-ALPES;431;38;45.1653613173;5.63185360757;87
PREMONTRE;800;33.7;14.2;16.4;22.6;89;11;24500;66;PICARDIE;422;02;49.5493580112;3.4177638358;87
BRAYE-EN-THIERACHE;100;34.7;16.5;17.5;22.1;80;20;24300;66;PICARDIE;407;02;49.7675470994;3.96265841899;87
MARCHAINVILLE;200;34.1;17.6;18.1;23.2;90;10;25800;58;BASSE-NORMANDIE;447;61;48.5949543709;0.807483495494;87
PELLEAUTIER;600;33.7;15.1;20.4;23.0;89;11;25800;59;PROVENCE-ALPES-COTE D'AZUR;419;05;44.5102662977;5.99877739937;87
TOURNOISIS;400;33.8;15.6;21.2;20.7;87;13;23800;67;CENTRE;435;45;48.0048588695;1.6244204938;87
LES MATELLES;1600;34.2;13.0;17.3;24.4;90;10;25500;60;LANGUEDOC-ROUSSILLON;441;34;43.7279155498;3.8068218202;87
MANDRES-AUX-QUATRE-TOURS;200;33.8;14.9;18.5;22.4;82;18;25000;63;LORRAINE;448;54;48.8280148948;5.79045735083;87
SUMENE;1600;34.0;16.9;15.0;21.6;88;12;23500;68;LANGUEDOC-ROUSSILLON;420;30;43.9885776737;3.73217518553;87
MEZIERES-AU-PERCHE;100;34.8;15.3;19.6;24.1;72;28;25800;63;CENTRE;431;28;48.2503282821;1.27119066216;87
ESSERTAUX;200;33.2;17.2;19.0;21.7;88;12;25000;66;PICARDIE;442;80;49.7465663966;2.25808683879;87
ABLANCOURT;200;33.4;16.3;17.8;21.1;85;15;24400;66;CHAMPAGNE-ARDENNE;432;51;48.8103417636;4.53084843791;87
MONTAULIEU;100;34.3;12.3;17.3;21.8;87;13;26000;62;RHONE-ALPES;410;26;44.3578984951;5.21799658575;87
LA FORET-AUVRAY;200;33.6;12.1;20.9;24.7;77;23;25300;69;BASSE-NORMANDIE;447;61;48.8060169107;-0.352753800367;87
GUERFAND;200;34.4;14.1;15.5;22.6;85;15;23500;66;BOURGOGNE;418;71;46.782165395;5.02905971383;87
SAINT-PIERRE-DES-CORPS;15400;34.7;15.7;17.5;20.9;81;19;23500;58;CENTRE;444;37;47.3884488197;0.738011772072;87
COIGNIERES;4500;34.8;13.1;18.4;21.6;84;16;24500;69;ILE-DE-FRANCE;410;78;48.7497670046;1.91381870273;87
BREEL;100;35.0;12.7;15.7;20.1;77;23;23200;65;BASSE-NORMANDIE;438;61;48.8110725163;-0.383316878236;87
BAIGNES;100;34.8;13.3;20.6;23.5;80;20;22900;66;FRANCHE-COMTE;448;70;47.5799666192;6.04782245584;87
VINDEFONTAINE;300;34.9;15.3;19.3;22.7;86;14;25200;63;BASSE-NORMANDIE;407;50;49.3413930139;-1.42827947486;87
SIREIX;100;33.7;13.6;21.0;22.9;76;24;25200;64;MIDI-PYRENEES;437;65;42.9660849304;-0.15464025939;87
LA ROCHE-SUR-LE-BUIS;300;33.6;17.6;16.9;21.1;86;14;24800;64;RHONE-ALPES;434;26;44.2625812469;5.34101183886;87
QUERRE;300;33.8;16.1;18.1;24.1;86;14;25700;61;PAYS DE LA LOIRE;442;49;47.6744801615;-0.613825669743;87
BEURIZOT;100;33.0;16.4;16.7;20.2;85;15;25500;66;BOURGOGNE;442;21;47.3555109503;4.49612543597;87
VILLEBOURG;300;34.5;12.0;19.8;24.2;72;28;25700;68;CENTRE;420;37;47.637086362;0.523444509985;87
PLEGUIEN;1200;32.7;14.4;18.3;20.1;86;14;25100;69;BRETAGNE;439;22;48.634729938;-2.948078639;87
GUILLY;700;35.0;13.0;18.0;21.6;74;26;24800;66;CENTRE;441;45;47.8054009428;2.27151487858;87
DUN-SUR-MEUSE;700;34.4;15.5;20.6;20.6;79;21;25400;66;LORRAINE;408;55;49.3830660669;5.19574111404;87
ASPACH;1200;33.5;13.2;18.0;24.5;86;14;25900;60;ALSACE;443;68;47.6424583561;7.23328777965;87
BOISEMONT;700;34.7;15.9;21.7;20.1;80;20;25800;64;ILE-DE-FRANCE;400;95;49.0186866586;2.00384200606;87
BORDS;1300;34.1;13.2;17.7;22.7;90;10;24800;69;POITOU-CHARENTES;415;17;45.8953761527;-0.785050392193;87
SAINT-COUAT-DU-RAZES;100;34.1;14.0;15.7;20.5;81;19;25900;59;LANGUEDOC-ROUSSILLON;444;11;42.9974690927;2.10792269276;87
VIEILLE-BRIOUDE;1200;34.6;13.2;22.0;20.1;83;17;25000;63;AUVERGNE;408;43;45.2509891916;3.40398248919;87
EINVILLE-AU-JARD;1200;34.0;12.1;15.0;21.3;75;25;25100;64;LORRAINE;430;54;48.6558058764;6.4779137062;87
SAINT-AUBIN;300;33.7;16.9;16.9;21.0;90;10;24900;65;BOURGOGNE;436;21;46.9504940966;4.71144303201;87
VERNEUGHEOL;300;33.0;14.8;21.5;21.5;81;19;25500;68;AUVERGNE;436;63;45.7554248044;2.52012470345;87
SANTA-LUCIA-DI-MORIANI;1200;33.7;13.8;19.0;20.8;75;25;25900;69;CORSE;430;2B;42.3840957627;9.51068685295;87
MENIL-FROGER;100;34.7;14.4;19.8;22.2;89;11;24400;61;BASSE-NORMANDIE;421;61;48.7308500818;0.265343668064;87
UNCEY-LE-FRANC;0;33.4;13.8;15.0;23.2;85;15;25500;65;BOURGOGNE;415;21;47.3434622037;4.57522013121;87
BLAIN;9300;34.6;15.3;22.0;22.1;80;20;24400;65;PAYS DE LA LOIRE;408;44;47.4628210409;-1.76789479614;87
AMBAZAC;5400;34.2;12.2;17.7;20.0;88;12;26000;57;LIMOUSIN;414;87;45.9534226621;1.39930873296;87
PESSAT-VILLENEUVE;500;34.6;13.8;20.5;24.1;83;17;24600;61;AUVERGNE;443;63;45.9230389016;3.15822094053;87
TILLE;1100;34.8;17.9;21.7;23.9;81;19;25800;55;PICARDIE;421;60;49.4644718487;2.11782914141;87
HOLTZWIHR;1300;34.7;16.2;16.5;22.7;82;18;25600;69;ALSACE;403;68;48.1164812033;7.41859914847;87
MORSALINES;200;35.0;15.5;18.0;21.1;81;19;23400;66;BASSE-NORMANDIE;426;50;49.5700693753;-1.31780369049;87
LAVAUR;10500;32.2;13.6;21.3;25.0;89;11;25300;64;MIDI-PYRENEES;442;81;43.6895628711;1.79437213708;87
CONTALMAISON;100;34.5;14.8;15.9;24.7;84;16;23900;63;PICARDIE;433;80;50.0293857303;2.73562069227;87
BISSEY-LA-COTE;100;34.1;15.3;21.8;20.4;82;18;25200;66;BOURGOGNE;406;21;47.9115041699;4.70686086144;87
ARRELLES;100;33.5;13.7;19.1;22.1;82;18;25100;67;CHAMPAGNE-ARDENNE;417;10;48.0462178704;4.27438158257;87
UPIE;1400;34.7;12.4;20.4;23.4;80;20;23800;68;RHONE-ALPES;410;26;44.7990451826;4.98046228806;87
BOUAFLES;700;33.5;13.9;18.2;22.5;83;17;25400;65;HAUTE-NORMANDIE;413;27;49.2013162618;1.38671055772;87
LAMANERE;100;34.9;13.5;21.7;21.8;80;20;23700;66;LANGUEDOC-ROUSSILLON;445;66;42.3581335381;2.51960965655;87
LARODDE;300;34.0;13.1;16.6;23.7;73;27;25400;69;AUVERGNE;427;63;45.5243871141;2.55410927855;87
ESPENEL;100;34.6;15.7;19.5;23.1;85;15;25900;56;RHONE-ALPES;434;26;44.6853594311;5.23465969716;87
LE CASTELLARD-MELAN;100;34.4;13.6;18.8;21.1;90;10;23900;62;PROVENCE-ALPES-COTE D'AZUR;431;04;44.2016431995;6.13159521325;87
THUN-SAINT-MARTIN;500;32.2;17.5;15.5;24.1;83;17;25900;65;NORD-PAS-DE-CALAIS;449;59;50.218482215;3.30304020982;87
SAINT-BONNET-DE-MURE;6300;33.4;14.2;21.3;24.3;85;15;24100;66;RHONE-ALPES;432;69;45.6961833142;5.02220384173;87
COCURES;200;32.5;15.4;16.9;24.6;90;10;24100;66;LANGUEDOC-ROUSSILLON;418;48;44.3539456684;3.61955972065;86
LYAS;600;34.4;12.9;19.6;24.9;77;23;23200;66;RHONE-ALPES;416;07;44.7568405764;4.59691440375;86
ISSERPENT;500;34.1;13.4;19.6;23.9;86;14;25600;55;AUVERGNE;445;03;46.1542955213;3.61825876933;86
CLAIX;7600;34.6;16.2;15.9;23.7;78;22;25900;57;RHONE-ALPES;407;38;45.1224170897;5.65707336922;86
MARCELLUS;800;34.6;15.1;20.6;23.3;74;26;24800;61;AQUITAINE;429;47;44.4802329351;0.075926421979;86
BEZ-ET-ESPARON;400;34.7;16.2;21.7;22.0;85;15;24000;59;LANGUEDOC-ROUSSILLON;429;30;43.9789082922;3.5343559846;86
SOULTZBACH-LES-BAINS;700;33.6;13.6;19.2;23.9;88;12;23600;67;ALSACE;411;68;48.0284078615;7.20442898654;86
AIREL;500;34.6;12.7;20.9;22.0;72;28;25800;59;BASSE-NORMANDIE;441;50;49.2125093524;-1.08007866426;86
REULLE-VERGY;100;33.3;14.6;21.6;23.5;79;21;25500;61;BOURGOGNE;436;21;47.1883731781;4.89680427712;86
BERNIERES-SUR-MER;2400;33.5;15.2;20.4;22.5;82;18;25300;59;BASSE-NORMANDIE;449;14;49.3194698748;-0.417743184424;86
MIOS;6900;32.4;17.7;21.2;23.5;89;11;24500;66;AQUITAINE;418;33;44.6179149385;-0.895043516013;86
MUN;100;34.9;17.7;15.9;24.6;87;13;25800;53;MIDI-PYRENEES;426;65;43.2803464506;0.270777277359;86
TRIGNAC;7200;34.5;17.0;21.2;21.0;84;16;21200;64;PAYS DE LA LOIRE;436;44;47.3125328416;-2.20700045585;86
LES ALLEUX;100;35.0;14.9;15.3;20.6;74;26;23800;63;CHAMPAGNE-ARDENNE;445;08;49.4739898043;4.7425319416;86
BUTTEN;700;33.3;16.9;17.5;24.0;88;12;25000;65;ALSACE;404;67;48.9713955937;7.24356966874;86
AUCHONVILLERS;100;33.4;16.6;20.7;21.8;90;10;23000;68;PICARDIE;421;80;50.0820136591;2.63330936836;86
NEUVE-EGLISE;600;34.2;16.0;16.4;23.4;79;21;23600;64;ALSACE;431;67;48.3261151153;7.31059686746;86
GEISPOLSHEIM;7000;34.3;13.9;21.9;20.5;88;12;23200;61;ALSACE;421;67;48.5143463092;7.65806561244;86
NESCUS;100;31.5;17.8;17.7;21.2;84;16;25500;64;MIDI-PYRENEES;430;09;42.9917806971;1.43531153938;86
PORCARO;700;34.0;14.3;16.9;24.6;80;20;23400;66;BRETAGNE;410;56;47.9198730267;-2.19384701914;86
HOUSSAY;400;32.2;17.5;17.9;21.3;82;18;24900;65;CENTRE;439;41;47.7446954686;0.947069193008;86
FLACY;100;33.4;16.0;19.8;24.2;85;15;22800;69;BOURGOGNE;443;89;48.2122713686;3.58723474642;86
KINDWILLER;600;33.8;17.9;15.8;23.5;86;14;26000;54;ALSACE;427;67;48.8612754447;7.59545058526;86
PLANCHES;200;34.5;13.7;16.2;22.1;79;21;23800;60;BASSE-NORMANDIE;419;61;48.6898504724;0.377530769995;86
LA CROIX-AUX-BOIS;100;33.6;13.9;17.0;23.9;87;13;23200;67;CHAMPAGNE-ARDENNE;419;08;49.4054523521;4.78917859814;86
PUYMOYEN;2400;33.5;12.5;15.1;23.9;84;16;25500;57;POITOU-CHARENTES;415;16;45.6160185943;0.172580597742;86
CHAMP-D'OISEAU;100;33.1;17.4;18.4;23.0;79;21;23700;68;BOURGOGNE;444;21;47.5549844256;4.34798073365;86
EDERN;2100;32.4;12.5;18.4;25.0;88;12;24900;68;BRETAGNE;425;29;48.1199968279;-3.96022667408;86
SAINT-DOMINEUC;2200;34.7;13.9;20.3;23.9;89;11;25600;54;BRETAGNE;436;35;48.3604701508;-1.86929825665;86
MOLOY;200;33.1;17.3;16.5;25.0;73;27;25300;68;BOURGOGNE;437;21;47.5393714062;4.92171403878;86
RAZAC-DE-SAUSSIGNAC;400;34.2;15.7;20.7;21.3;78;22;24600;60;AQUITAINE;449;24;44.8135434686;0.290129313866;86
CANAPLES;600;33.5;17.7;16.1;23.8;72;28;25000;68;PICARDIE;435;80;50.0613505846;2.2308855769;86
EUVEZIN;100;34.8;16.1;21.8;20.9;78;22;24300;65;LORRAINE;407;54;48.9198099623;5.8592491591;86
BASSIGNAC;200;34.5;16.9;15.4;23.7;85;15;25500;61;AUVERGNE;396;15;45.3148849641;2.40014280339;86
SAINT-JEAN-CAP-FERRAT;2000;34.2;14.6;15.6;24.3;90;10;25300;65;PROVENCE-ALPES-COTE D'AZUR;393;06;43.687178893;7.32993632437;86
SEPTEMES-LES-VALLONS;10600;35.0;13.6;20.6;23.7;85;15;25700;50;PROVENCE-ALPES-COTE D'AZUR;437;13;43.3934944571;5.3808040555;86
BEUGNY;400;35.0;17.3;21.3;21.4;84;16;23900;57;NORD-PAS-DE-CALAIS;434;62;50.1183185417;2.93213204111;86
ROCHONVILLERS;200;34.6;12.9;20.0;22.2;72;28;25400;66;LORRAINE;413;57;49.4096487557;6.02717195246;86
SERCUS;400;33.9;14.6;17.3;20.7;89;11;24600;61;NORD-PAS-DE-CALAIS;417;59;50.7083527622;2.45193657383;86
RIORGES;10700;33.8;16.8;17.3;24.6;83;17;22500;64;RHONE-ALPES;427;42;46.0429114311;4.03375590925;86
QUERCITELLO;100;34.5;15.5;18.4;22.6;73;27;25900;57;CORSE;439;2B;42.4279847152;9.34339471958;86
AUBILLY;100;31.6;15.2;21.0;21.7;86;14;25100;65;CHAMPAGNE-ARDENNE;436;51;49.2127739521;3.85555629436;86
LOUHOSSOA;900;33.8;14.9;21.1;21.1;83;17;23200;68;AQUITAINE;419;64;43.3122720751;-1.34791351208;86
SAINT-ANDEOL-DE-CLERGUEMORT;100;34.5;14.5;20.0;21.5;90;10;22700;63;LANGUEDOC-ROUSSILLON;417;48;44.2996352454;3.90517923805;86
SAINT-AUBIN-LE-CAUF;900;33.6;12.0;20.0;24.3;78;22;24700;61;HAUTE-NORMANDIE;419;76;49.8678815711;1.17642488577;86
NANT;900;34.9;16.4;17.0;22.0;80;20;24600;65;MIDI-PYRENEES;395;12;44.0206117427;3.28565334346;86
FROMY;100;34.3;13.9;19.2;23.4;80;20;24300;59;CHAMPAGNE-ARDENNE;414;08;49.6013937108;5.25624601587;86
GY-LES-NONAINS;600;33.4;17.8;21.3;23.1;81;19;25400;65;CENTRE;400;45;47.9287539201;2.84603975187;86
TULLINS;7700;33.9;12.0;21.7;23.1;83;17;24500;66;RHONE-ALPES;394;38;45.2938791725;5.49006158623;86
BONNARD;900;33.8;17.7;15.9;20.3;73;27;25200;67;BOURGOGNE;430;89;47.9295214402;3.53452583503;86
PRIGNAC-EN-MEDOC;200;33.4;15.7;21.7;23.3;79;21;26000;60;AQUITAINE;418;33;45.3185304134;-0.906635025936;86
LE THOLONET;2200;32.9;17.8;16.7;22.4;79;21;24000;65;PROVENCE-ALPES-COTE D'AZUR;436;13;43.5196914136;5.50819253944;86
DAMEREY;600;33.3;15.0;17.3;21.3;84;16;25900;62;BOURGOGNE;410;71;46.8344484396;4.99429761869;86
SAINT-DIDIER-AU-MONT-D'OR;6400;32.4;15.2;18.5;24.7;86;14;24000;66;RHONE-ALPES;418;69;45.8147288136;4.79844330211;86
BIGORNO;100;34.4;15.4;21.4;21.4;76;24;25700;59;CORSE;423;2B;42.5310349596;9.30225902799;86
BELLECOMBE-EN-BAUGES;600;34.9;13.8;21.7;23.0;80;20;22100;64;RHONE-ALPES;418;73;45.7380105012;6.14458814234;86
ETIVAL-LES-LE-MANS;2100;34.5;16.3;16.0;21.9;88;12;22400;65;PAYS DE LA LOIRE;415;72;47.9634415619;0.077249958248;86
CORCELLES-FERRIERES;200;34.0;16.8;18.8;22.2;84;16;24500;60;FRANCHE-COMTE;430;25;47.2266648284;5.80424536213;86
LA REPARA-AURIPLES;200;33.5;16.2;18.2;22.7;87;13;23000;64;RHONE-ALPES;438;26;44.6614747098;4.9942784244;86
LA CHAPELLE-THIREUIL;400;34.4;15.0;15.6;21.0;82;18;25200;69;POITOU-CHARENTES;392;79;46.5528411704;-0.552963332142;86
NEUVILLE-SAINT-AMAND;900;34.6;17.3;20.6;21.7;76;24;23500;65;PICARDIE;430;02;49.8206477091;3.33360991741;86
HARNES;12600;34.9;12.9;20.3;24.6;81;19;20800;66;NORD-PAS-DE-CALAIS;422;62;50.4516887565;2.90335898213;86
SATOLAS-ET-BONCE;2100;33.2;16.8;20.4;21.4;89;11;23900;69;RHONE-ALPES;429;38;45.682504844;5.12584106732;86
HADIGNY-LES-VERRIERES;400;34.1;17.0;18.3;24.9;79;21;23700;61;LORRAINE;435;88;48.3219668732;6.4778869001;86
SAINT-LAURENT-LES-TOURS;900;34.9;12.6;16.3;21.1;82;18;23800;66;MIDI-PYRENEES;405;46;44.8817459131;1.90434395957;86
ALBY-SUR-CHERAN;2000;33.2;16.7;17.0;20.6;83;17;25100;59;RHONE-ALPES;421;74;45.8156435779;6.01581486858;86
VERNOLS;100;31.2;17.4;21.7;24.1;80;20;25800;65;AUVERGNE;449;15;45.2190007812;2.88326804068;86
LA CHAPELLE-VILLARS;600;34.4;12.9;21.6;22.9;88;12;25900;54;RHONE-ALPES;425;42;45.4780450334;4.7142051612;86
LALIZOLLE;400;33.8;13.0;15.9;24.6;87;13;23900;65;AUVERGNE;413;03;46.1646303512;3.00825559496;86
GEAUNE;700;33.1;12.6;21.0;24.8;86;14;23900;66;AQUITAINE;424;40;43.6324028996;-0.365846748561;86
AVESNES-LES-AUBERT;3700;34.7;12.4;18.4;24.7;77;23;24800;67;NORD-PAS-DE-CALAIS;394;59;50.1911782213;3.37676857334;86
ROMAIN;100;35.0;17.0;17.0;21.2;78;22;24800;56;FRANCHE-COMTE;434;25;47.4439581352;6.37976637275;86
BALATRE;100;34.4;12.7;20.3;22.2;80;20;22500;67;PICARDIE;446;80;49.7112977032;2.86504759397;86
ARPAVON;100;32.6;12.5;18.2;23.2;79;21;25200;63;RHONE-ALPES;434;26;44.370914993;5.27351034083;86
MAISONCELLES-EN-GATINAIS;100;34.4;13.2;21.3;21.5;77;23;24600;65;ILE-DE-FRANCE;408;77;48.1827929678;2.6212297089;86
GALFINGUE;800;34.8;17.6;20.4;21.7;83;17;23800;67;ALSACE;407;68;47.7038424637;7.22128198778;86
CONTREXEVILLE;3400;34.8;12.5;19.4;24.2;72;28;25300;64;LORRAINE;408;88;48.1854408113;5.89357999879;86
SAINT-PAUL;100;34.2;16.7;18.0;22.8;82;18;25700;55;LORRAINE;429;88;48.3309340459;5.8864017008;86
GUINARTHE-PARENTIES;200;34.8;14.3;16.4;20.2;87;13;22300;67;AQUITAINE;411;64;43.3844299922;-0.946598983055;86
BELBEZE-DE-LAURAGAIS;100;33.7;13.5;20.5;20.1;76;24;26000;60;MIDI-PYRENEES;414;31;43.437002886;1.55679830955;86
LOURDES;15100;32.7;14.2;17.0;21.5;77;23;23700;67;MIDI-PYRENEES;436;65;43.1074297344;-0.0768069387932;86
FOUGERES-SUR-BIEVRE;800;34.3;15.0;20.5;22.6;77;23;25800;57;CENTRE;417;41;47.4498991602;1.34106048827;86
BOISSY-LA-RIVIERE;500;34.8;13.3;17.8;22.8;77;23;25600;65;ILE-DE-FRANCE;397;91;48.3824146625;2.17005086721;86
VILLECHANTRIA;100;34.4;16.7;20.5;22.5;75;25;23800;67;FRANCHE-COMTE;425;39;46.3763797844;5.43861580418;86
PLOUBAZLANEC;3300;34.3;12.4;20.3;22.9;81;19;23700;61;BRETAGNE;439;22;48.80535932;-3.04524739912;86
PERRUEL;500;34.3;17.9;17.9;21.7;81;19;25300;54;HAUTE-NORMANDIE;443;27;49.4322323114;1.36153418506;86
RIBEAUVILLE;4800;32.3;16.6;21.9;23.5;83;17;25300;64;ALSACE;409;68;48.2065139236;7.28672468283;86
WALY;100;33.2;14.4;16.4;20.4;76;24;24100;65;LORRAINE;440;55;49.0242695757;5.0987439035;86
SADEILLAN;100;34.5;17.5;17.8;23.8;81;19;25800;63;MIDI-PYRENEES;395;32;43.3960094567;0.343407720125;86
LEYRIEU;700;33.9;12.9;21.5;20.8;74;26;24600;66;RHONE-ALPES;441;38;45.7563040682;5.25503498481;86
PAIMBOEUF;3200;34.1;12.3;21.9;21.1;78;22;24100;63;PAYS DE LA LOIRE;412;44;47.2863992883;-2.02807425552;86
MAURIAC;3900;32.7;13.3;15.5;21.3;80;20;25400;59;AUVERGNE;447;15;45.2183220694;2.31678475408;86
VILLIERS-FOSSARD;500;34.5;16.9;20.0;21.3;89;11;25100;56;BASSE-NORMANDIE;418;50;49.1613885671;-1.06108270385;86
BOUVILLE;500;34.4;16.9;16.4;21.7;84;16;22500;64;CENTRE;423;28;48.2618330754;1.37825366464;86
CREGY-LES-MEAUX;4200;34.9;12.1;18.5;22.1;78;22;22300;63;ILE-DE-FRANCE;424;77;48.9776563538;2.87369096046;86
BRIANTES;600;33.4;13.4;17.5;21.1;87;13;25400;63;CENTRE;409;36;46.5505241827;2.02422131668;86
SIEVOZ;100;33.9;12.6;21.6;20.8;83;17;23000;64;RHONE-ALPES;426;38;44.9050907619;5.85034623903;86
GONDECOURT;4000;34.5;14.4;20.1;24.7;73;27;23600;67;NORD-PAS-DE-CALAIS;438;59;50.5478874512;2.98009724993;86
LA CHAPELLE-AUBAREIL;500;34.2;17.3;18.8;24.9;79;21;22900;67;AQUITAINE;436;24;45.0104993556;1.18942636109;86
ENTREMONT;600;34.7;15.8;21.7;24.8;79;21;25400;53;RHONE-ALPES;419;74;45.9504525133;6.3755250744;86
NEUFLIEUX;100;34.6;13.6;20.2;21.9;83;17;24700;58;PICARDIE;448;02;49.6163788231;3.15996849471;86
BELLAC;4400;34.8;17.9;20.8;21.7;75;25;25100;68;LIMOUSIN;401;87;46.1049122554;1.04116467219;86
SENLIS;16300;31.6;12.3;19.3;20.8;84;16;25600;61;PICARDIE;420;60;49.2118455897;2.58570626014;86
BORDES-DE-RIVIERE;500;33.2;12.3;15.9;22.2;84;16;25800;68;MIDI-PYRENEES;405;31;43.1236831368;0.634949755967;86
HALLOVILLE;100;34.9;13.4;15.5;24.4;86;14;25200;53;LORRAINE;422;54;48.5513232103;6.85953452145;86
PLOUHINEC;4200;31.5;14.4;21.3;22.3;81;19;25600;65;BRETAGNE;415;29;48.0137327427;-4.48457090531;86
CHAVANNES-SUR-L'ETANG;600;34.2;15.6;16.4;24.6;90;10;25200;56;ALSACE;445;68;47.6396468352;7.03103737458;86
BAUDIGNECOURT;100;31.7;12.4;21.1;23.1;86;14;25300;68;LORRAINE;423;55;48.5651974464;5.45858309464;86
BUDOS;700;33.6;16.8;15.2;24.4;81;19;22500;68;AQUITAINE;443;33;44.5346733151;-0.399965558931;86
LOGNY-LES-AUBENTON;100;33.2;13.8;17.8;22.9;90;10;24500;65;PICARDIE;412;02;49.8330144048;4.2201280927;86
DAVEJEAN;100;34.0;12.3;18.1;22.6;73;27;24400;68;LANGUEDOC-ROUSSILLON;445;11;42.9586371128;2.60630831881;86
LES NOES-PRES-TROYES;3200;32.6;12.1;16.4;24.7;82;18;24100;64;CHAMPAGNE-ARDENNE;420;10;48.3033387671;4.04203482801;86
AMPILLY-LE-SEC;400;34.3;12.7;16.5;20.5;86;14;22100;67;BOURGOGNE;441;21;47.8100690603;4.50329961504;86
USTARITZ;6000;33.0;14.4;15.8;21.7;80;20;24100;63;AQUITAINE;425;64;43.401807303;-1.4751898518;86
LA RIVIERE-DE-CORPS;2900;34.5;13.5;19.2;23.8;78;22;22500;66;CHAMPAGNE-ARDENNE;439;10;48.2801548843;4.0140574686;86
BARRY-D'ISLEMADE;800;34.6;13.3;21.0;23.2;85;15;23700;60;MIDI-PYRENEES;432;82;44.0727114625;1.25300673075;86
TILLOY-LEZ-CAMBRAI;600;33.0;17.5;18.8;24.2;81;19;23900;64;NORD-PAS-DE-CALAIS;435;59;50.2010948825;3.21429536974;86
ALDUDES;400;34.9;12.4;21.2;22.2;82;18;22200;69;AQUITAINE;432;64;43.0920329311;-1.43472285971;86
BREHEMONT;800;34.6;13.2;16.5;24.0;74;26;24200;64;CENTRE;440;37;47.2893596195;0.361536652473;86
JARJAYES;400;32.8;15.2;16.3;22.1;85;15;24600;66;PROVENCE-ALPES-COTE D'AZUR;437;05;44.50532996;6.10808996032;86
LACHAPELLE;100;34.9;17.1;19.1;22.3;86;14;25000;56;AQUITAINE;434;47;44.5744654566;0.259640336825;86
LA MONTAGNE;6000;34.2;17.3;19.5;20.5;88;12;21800;66;PAYS DE LA LOIRE;444;44;47.1849548503;-1.6848281963;86
THIRAUCOURT;100;32.9;14.2;20.1;20.8;76;24;25200;63;LORRAINE;430;88;48.292756795;6.07454050117;86
COSSE-LE-VIVIEN;2900;33.5;17.6;18.3;23.7;80;20;23200;63;PAYS DE LA LOIRE;445;53;47.94585879;-0.934606329089;86
COUTICHES;2700;34.0;17.0;21.5;20.8;89;11;24500;69;NORD-PAS-DE-CALAIS;405;59;50.4501366141;3.19335565357;86
CHASSAIGNES;100;33.5;17.7;20.0;24.4;89;11;23600;66;AQUITAINE;429;24;45.2543656522;0.249815310877;86
MEUNG-SUR-LOIRE;6100;34.5;12.2;15.5;24.0;87;13;25700;67;CENTRE;383;45;47.8397230739;1.69811579508;86
SAINT-ARNOULT-EN-YVELINES;6100;34.3;14.9;19.6;20.3;86;14;24900;55;ILE-DE-FRANCE;417;78;48.5725220079;1.93463847942;86
MONTAUT;600;34.9;16.1;16.4;23.4;79;21;23100;61;AQUITAINE;436;40;43.7283439402;-0.656045169398;86
SAINT-LAURENT-DU-VERDON;100;31.7;15.5;16.6;21.0;90;10;25500;63;PROVENCE-ALPES-COTE D'AZUR;438;04;43.7216172183;6.06859538838;86
SAINTE-RUFFINE;500;33.7;12.3;18.3;20.6;82;18;23400;68;LORRAINE;430;57;49.1065906287;6.09568579469;86
LIMONS;700;32.8;13.2;15.7;23.1;79;21;25900;60;AUVERGNE;421;63;45.9761150757;3.44572241084;86
VILLEVEQUE;2900;33.3;17.8;18.0;23.9;87;13;25100;59;PAYS DE LA LOIRE;426;49;47.5486542844;-0.44694039674;86
LONGUESSE;500;34.3;16.5;16.8;20.6;80;20;25900;68;ILE-DE-FRANCE;386;95;49.0616626709;1.92659421162;86
PRECORBIN;500;34.2;13.9;16.5;20.3;86;14;25500;66;BASSE-NORMANDIE;393;50;49.0799373012;-0.963608377637;86
CHALLANS;18700;32.7;13.6;19.2;22.8;84;16;23300;64;PAYS DE LA LOIRE;428;85;46.8354416653;-1.84036683139;86
RONCHERES;100;32.2;13.9;20.6;23.3;89;11;25000;66;BOURGOGNE;443;89;47.6589905273;3.12087826286;86
MONTHENAULT;100;35.0;12.3;16.4;22.6;81;19;24100;68;PICARDIE;392;02;49.4892743465;3.65592404446;86
GRILLY;700;34.4;12.1;16.4;21.6;90;10;22900;63;RHONE-ALPES;418;01;46.3318810665;6.11366767978;86
LES ADJOTS;500;31.9;13.9;18.5;24.2;89;11;24900;65;POITOU-CHARENTES;447;16;46.0787550512;0.203143435799;86
SAINT-JEAN-DE-BELLEVILLE;500;35.0;17.0;19.7;21.6;75;25;25700;66;RHONE-ALPES;398;73;45.4054371324;6.44373760983;86
BRESSUIRE;18600;33.7;15.9;17.3;22.6;88;12;25700;55;POITOU-CHARENTES;408;79;46.8545755683;-0.479375922286;86
ARSAC;3100;33.8;16.6;21.8;20.5;78;22;25900;65;AQUITAINE;395;33;44.9884555453;-0.701315089192;86
COHADE;800;34.6;17.4;19.6;23.4;84;16;23800;69;AUVERGNE;403;43;45.3350700352;3.3706620305;86
MOISSIEU-SUR-DOLON;700;34.5;14.1;17.7;24.6;90;10;22500;63;RHONE-ALPES;444;38;45.3908938983;4.98729399155;86
FORET-LA-FOLIE;500;33.3;12.2;16.2;22.6;72;28;25200;64;HAUTE-NORMANDIE;432;27;49.220590531;1.51722809302;86
SAINT-JULIEN-LES-METZ;3000;32.0;13.4;21.8;22.4;85;15;25200;64;LORRAINE;423;57;49.1398497812;6.2087377953;86
ALLONNES;3000;33.5;16.0;19.5;23.2;89;11;25600;55;PAYS DE LA LOIRE;444;49;47.3034746947;0.0111127082363;86
MELESSE;5500;34.3;15.8;19.6;24.4;90;10;23300;62;BRETAGNE;411;35;48.2193069814;-1.68950220558;86
BAGE-LA-VILLE;3000;31.3;16.3;15.8;24.5;77;23;26000;69;RHONE-ALPES;422;01;46.3233203302;4.9528678933;86
COURVILLE;500;34.6;12.7;16.6;20.7;78;22;24600;65;CHAMPAGNE-ARDENNE;407;51;49.2717748239;3.70869393616;86
BELLAFFAIRE;100;34.4;12.7;16.9;25.0;77;23;25300;58;PROVENCE-ALPES-COTE D'AZUR;442;04;44.4043915253;6.19420304469;86
VALPRIONDE;100;33.4;15.8;15.1;20.9;86;14;25300;63;MIDI-PYRENEES;408;46;44.3472977247;1.11796104129;86
LORIOL-SUR-DROME;5800;34.8;13.3;21.5;20.2;82;18;24000;66;RHONE-ALPES;393;26;44.7499742267;4.80530615488;86
CORMEILLES;400;34.2;17.5;21.7;20.1;84;16;22500;63;PICARDIE;428;60;49.6424440702;2.19661684856;86
SAINT-FARGEAU-PONTHIERRY;12200;34.4;13.3;16.4;23.0;88;12;24500;65;ILE-DE-FRANCE;391;77;48.5390914714;2.52499710746;86
THAIRE;1500;34.8;15.5;21.5;24.0;74;26;24200;60;POITOU-CHARENTES;446;17;46.0773803387;-1.00436533555;86
POINTEL;300;33.4;16.8;17.8;24.6;80;20;23200;66;BASSE-NORMANDIE;445;61;48.6945257579;-0.348493610503;86
SAINT-CONNAN;300;31.6;15.8;18.2;22.5;89;11;25600;63;BRETAGNE;430;22;48.412323087;-3.07608940512;86
DIEUE-SUR-MEUSE;1400;34.8;14.8;16.9;20.7;79;21;22700;64;LORRAINE;448;55;49.0797403582;5.42963036302;86
HARTENNES-ET-TAUX;300;32.5;16.9;16.2;24.3;89;11;25700;64;PICARDIE;408;02;49.2789534457;3.35763287633;86
EQUENNES-ERAMECOURT;300;32.9;13.7;16.4;20.6;80;20;25400;60;PICARDIE;428;80;49.7278828186;1.95586225984;86
SAINT-MARTIN-LE-BOUILLANT;300;33.3;16.9;17.7;21.0;87;13;23400;66;BASSE-NORMANDIE;433;50;48.7800336062;-1.15914723791;86
CROMAC;300;32.3;16.0;18.5;23.2;87;13;25100;67;LIMOUSIN;424;87;46.3601964498;1.31102488604;86
HUBERVILLE;300;34.1;15.6;17.5;21.3;79;21;23300;69;BASSE-NORMANDIE;429;50;49.5093443935;-1.43254692074;86
LE FOEIL;1400;33.2;15.4;18.7;22.5;86;14;24500;60;BRETAGNE;442;22;48.4178424268;-2.91449094191;86
ENVRONVILLE;300;33.7;14.8;15.2;21.3;84;16;22500;66;HAUTE-NORMANDIE;448;76;49.6585527629;0.670389261558;86
LANLOUP;300;32.9;16.2;17.3;22.6;85;15;24400;63;BRETAGNE;420;22;48.7099285646;-2.96884384171;86
SAINT-NICOLAS-DES-BOIS;300;33.4;17.9;18.9;22.0;74;26;24800;64;BASSE-NORMANDIE;429;61;48.5061778998;0.0266355295781;86
VILLERS-AU-FLOS;200;33.0;12.1;17.7;21.6;79;21;23500;65;NORD-PAS-DE-CALAIS;436;62;50.0787621287;2.90542012766;86
NIDERHOFF;300;33.3;16.9;17.7;21.4;77;23;24100;67;LORRAINE;421;57;48.6279003557;7.008294528;86
LA VALLEE-AU-BLE;300;31.3;15.5;17.7;23.7;82;18;26000;69;PICARDIE;435;02;49.8571725081;3.794382858;86
GEE;400;33.2;16.1;17.6;21.4;78;22;24500;67;PAYS DE LA LOIRE;415;49;47.4675586075;-0.230572798219;86
VILLENEUVE-LES-SABLONS;1300;32.3;17.0;20.5;20.5;85;15;24900;63;PICARDIE;434;60;49.2334293804;2.07366432947;86
SAINT-GEORGES-DU-BOIS;1700;33.6;14.5;20.5;21.2;71;29;24800;65;POITOU-CHARENTES;421;17;46.1500553419;-0.739061354783;86
LA VRAIE-CROIX;1300;34.6;12.1;18.3;22.6;74;26;25600;68;BRETAGNE;397;56;47.6897714715;-2.51941411954;86
GARLIN;1400;33.9;14.9;16.4;20.7;88;12;22200;68;AQUITAINE;446;64;43.5599586619;-0.272296457605;86
EBREON;200;33.6;12.9;18.1;21.6;77;23;25400;59;POITOU-CHARENTES;431;16;45.9419566214;0.0300094172426;86
SAINT-MAURICE-EN-GOURGOIS;1700;34.6;13.1;15.8;21.0;77;23;25800;54;RHONE-ALPES;448;42;45.4080254859;4.18440068436;86
MARSEILLE--6E--ARRONDISSEMENT;43300;34.3;16.8;18.3;22.3;64;36;23800;63;PROVENCE-ALPES-COTE D'AZUR;434;13;43.2870989546;5.38104785394;86
SAINT-ALLOUESTRE;600;33.8;15.4;17.0;23.9;87;13;22600;68;BRETAGNE;442;56;47.9081978294;-2.73628511193;86
LA CHAPELLE-FORAINVILLIERS;200;34.0;15.7;21.7;23.9;84;16;23700;63;CENTRE;420;28;48.7282722261;1.49116779483;86
ESTREELLES;300;34.6;12.3;18.5;20.4;86;14;23100;61;NORD-PAS-DE-CALAIS;429;62;50.5013343429;1.77932498079;86
SAINT-SYMPHORIEN-D'ANCELLES;1000;33.1;15.5;16.9;24.2;89;11;25700;59;BOURGOGNE;425;71;46.1956267392;4.77196064471;86
BOURG-LE-ROI;300;34.3;13.3;21.9;24.0;85;15;25300;68;PAYS DE LA LOIRE;391;72;48.3460739531;0.132093521683;86
FONDREMAND;200;34.3;14.3;20.4;20.1;83;17;24800;60;FRANCHE-COMTE;408;70;47.4719327079;6.02806238503;86
SORBIERS;0;31.7;16.6;15.7;21.6;90;10;25400;66;PROVENCE-ALPES-COTE D'AZUR;446;05;44.3625387102;5.57325324553;86
LA CHAPELLE-ENCHERIE;200;33.2;16.4;18.4;21.8;85;15;23600;69;CENTRE;441;41;47.8261991313;1.21209183111;86
PANZOULT;600;33.5;12.1;17.2;22.4;82;18;25600;64;CENTRE;406;37;47.1645476117;0.407008827504;86
BARC;1000;34.7;17.9;20.1;24.4;82;18;24400;58;HAUTE-NORMANDIE;426;27;49.0794545996;0.824738866399;86
BEAUFICEL-EN-LYONS;200;34.4;16.6;17.2;20.4;90;10;23700;59;HAUTE-NORMANDIE;441;27;49.4044391914;1.52480610334;86
LACRABE;200;34.8;14.1;15.6;23.0;90;10;24500;59;AQUITAINE;411;40;43.6100626829;-0.592429512966;86
PASLY;1000;33.3;12.2;16.3;21.7;84;16;23000;65;PICARDIE;430;02;49.4022800131;3.29799527999;86
VILLEFRANCHE-LE-CHATEAU;0;34.9;12.7;17.9;21.6;90;10;25300;59;RHONE-ALPES;410;26;44.2152597669;5.50831127895;86
BRANCEILLES;300;34.9;16.9;17.7;24.2;72;28;24500;66;LIMOUSIN;414;19;45.0080597171;1.708482812;86
RUAN;200;31.3;14.8;19.9;22.4;82;18;25400;66;CENTRE;434;45;48.1088949762;1.92407655033;86
BIZANET;1300;33.5;13.1;20.0;21.0;82;18;24000;63;LANGUEDOC-ROUSSILLON;429;11;43.1482543689;2.86981441339;86
MACLAS;1700;32.8;16.4;17.2;22.4;75;25;25000;66;RHONE-ALPES;436;42;45.3609273148;4.6976820732;86
VILLESISCLE;300;34.9;17.8;18.0;23.1;84;16;25800;52;LANGUEDOC-ROUSSILLON;428;11;43.2278470431;2.08978989468;86
SEIGNY;200;32.8;16.0;20.7;20.0;76;24;25100;68;BOURGOGNE;440;21;47.5771836934;4.43932756147;86
URS;0;34.9;13.7;18.1;21.3;71;29;26000;60;MIDI-PYRENEES;446;09;42.778113198;1.73489746587;86
SURTAINVILLE;1300;34.0;13.7;16.8;23.5;85;15;23800;69;BASSE-NORMANDIE;408;50;49.4529583495;-1.79283782284;86
VERCHOCQ;600;32.6;17.1;20.8;22.5;83;17;24600;64;NORD-PAS-DE-CALAIS;444;62;50.5548367541;2.04003605108;86
LE CHAUTAY;300;31.5;15.9;16.2;23.8;88;12;25100;67;CENTRE;433;18;46.9852189195;2.9640713443;86
MONTREUIL-LE-HENRI;300;31.6;17.1;20.4;22.1;86;14;25500;68;PAYS DE LA LOIRE;444;72;47.8619039789;0.571664578097;86
LA VILLENEUVE-AU-CHENE;400;34.8;16.0;19.0;24.3;85;15;25800;50;CHAMPAGNE-ARDENNE;434;10;48.2487579972;4.39081684128;86
DIGNAC;1300;33.7;14.2;19.8;23.3;90;10;23400;65;POITOU-CHARENTES;423;16;45.5542534164;0.283491007595;86
ASTET;0;33.7;12.1;18.9;22.3;86;14;25500;58;RHONE-ALPES;415;07;44.6847057844;4.02649606307;86
FRESSELINES;600;34.4;13.3;16.9;21.2;72;28;24900;62;LIMOUSIN;420;23;46.3778373605;1.69897316161;86
SAINT-MARTIN-SUR-COJEUL;200;32.4;12.8;20.6;22.8;89;11;24200;69;NORD-PAS-DE-CALAIS;424;62;50.228647822;2.85191979354;86
SAINTE-MARIE-DE-VATIMESNIL;300;32.8;13.0;19.8;21.9;88;12;24400;68;HAUTE-NORMANDIE;424;27;49.2721801587;1.58233388295;86
CHANEAC;300;34.1;14.6;16.3;23.0;87;13;23200;68;RHONE-ALPES;410;07;44.9300424452;4.30692688194;86
VEZENOBRES;1700;34.2;12.0;21.0;22.0;86;14;22500;66;LANGUEDOC-ROUSSILLON;427;30;44.0510480255;4.13455182602;86
EGRY;300;32.7;17.3;21.5;23.1;88;12;25300;63;CENTRE;423;45;48.1008974565;2.44089841893;86
LE THOU;1500;34.9;17.2;20.3;20.0;76;24;25700;53;POITOU-CHARENTES;424;17;46.0868700947;-0.937375206626;86
NOUGAROULET;300;34.5;16.4;18.0;21.3;90;10;25600;69;MIDI-PYRENEES;393;32;43.6899514871;0.717872769956;86
ETERVILLE;1400;32.6;17.3;17.0;21.9;86;14;26000;58;BASSE-NORMANDIE;430;14;49.1478744808;-0.428813516348;86
SAINTE-MONDANE;200;33.8;13.0;16.9;24.8;73;27;25400;64;AQUITAINE;443;24;44.8354016232;1.34672272166;86
LEMAINVILLE;300;32.5;16.6;20.3;24.3;90;10;24600;69;LORRAINE;433;54;48.5057667643;6.18685411561;86
LOUPIAC;300;32.7;12.2;19.8;21.8;81;19;24300;68;MIDI-PYRENEES;414;46;44.826492947;1.47337068734;86
HEILIGENSTEIN;1000;32.6;16.3;20.4;24.7;89;11;23700;69;ALSACE;436;67;48.4220772866;7.44087809076;86
OSLY-COURTIL;300;33.2;12.8;21.0;23.8;89;11;23700;63;PICARDIE;439;02;49.3995301311;3.23736511582;86
SAINT-EPAIN;1500;35.0;15.3;19.8;24.5;73;27;22900;68;CENTRE;443;37;47.1529048549;0.578633849265;86
CRAINCOURT;300;34.2;14.1;17.3;21.5;75;25;23800;67;LORRAINE;429;57;48.8765159972;6.33285701026;86
LIGNEROLLES;200;32.6;16.2;21.3;20.4;89;11;24800;66;BASSE-NORMANDIE;426;61;48.5987183738;0.575530344307;86
FLEURY;900;34.8;14.7;15.2;23.7;85;15;21500;67;BASSE-NORMANDIE;440;50;48.8488921299;-1.26431862113;86
ORLEIX;1800;34.7;14.3;16.1;21.9;78;22;23300;61;MIDI-PYRENEES;417;65;43.2762828841;0.117396047373;86
SAINT-SYMPHORIEN-SUR-COUZE;200;34.5;12.6;19.3;20.8;85;15;21500;68;LIMOUSIN;435;87;46.0499456746;1.2387984351;86
PULLIGNY;1200;32.3;12.3;21.8;20.4;86;14;25000;66;LORRAINE;412;54;48.549622462;6.15189007246;86
NANCRAY;1200;34.5;13.3;17.9;20.5;73;27;25000;68;FRANCHE-COMTE;408;25;47.2500159074;6.17754148907;86
SAINT-SATURNIN-DE-LENNE;400;34.5;17.4;18.0;23.5;84;16;23200;67;MIDI-PYRENEES;413;12;44.409127962;3.02218493838;86
NIOZELLES;200;33.7;12.2;19.8;20.7;79;21;25400;60;PROVENCE-ALPES-COTE D'AZUR;427;04;43.9318568104;5.84735007889;86
MONTPENSIER;400;32.7;15.3;20.7;20.7;82;18;25400;62;AUVERGNE;447;63;46.0378088494;3.22643917176;86
SAINT-JEAN-LE-BLANC;300;34.9;14.4;17.4;23.4;79;21;23500;60;BASSE-NORMANDIE;414;14;48.9391505079;-0.65777801355;86
VIEL-SAINT-REMY;300;34.4;15.0;17.5;21.2;71;29;24700;69;CHAMPAGNE-ARDENNE;421;08;49.632572198;4.48367438059;86
LAMARCHE-SUR-SAONE;1200;33.2;16.9;20.4;23.9;82;18;24000;69;BOURGOGNE;437;21;47.272628371;5.3700531105;86
SAVIGNY-EN-VERON;1400;33.7;15.1;21.0;24.6;75;25;25800;60;CENTRE;447;37;47.2111243782;0.130191774161;86
QUINSON;400;33.5;16.4;19.5;21.5;82;18;23200;66;PROVENCE-ALPES-COTE D'AZUR;433;04;43.7080624854;6.02269492276;86
LACOUGOTTE-CADOUL;200;31.3;17.3;16.1;22.5;82;18;25600;67;MIDI-PYRENEES;420;81;43.6418245193;1.82103741651;86
VIRIEU-LE-GRAND;1100;34.2;16.8;21.9;23.2;86;14;24500;59;RHONE-ALPES;427;01;45.8464417872;5.63971940347;86
VILLIE-MORGON;1900;32.4;13.9;17.5;22.7;82;18;24600;65;RHONE-ALPES;428;69;46.1597734434;4.67110459009;86
PIACE;400;33.0;12.7;21.3;21.0;75;25;24600;69;PAYS DE LA LOIRE;443;72;48.2662297106;0.114166808373;86
LE MEIX-SAINT-EPOING;300;34.2;17.1;17.9;20.8;84;16;25600;64;CHAMPAGNE-ARDENNE;392;51;48.69506554;3.65422262759;86
FONTAINE-LE-PORT;900;33.5;13.4;15.7;20.3;72;28;24800;69;ILE-DE-FRANCE;419;77;48.4842448988;2.76706354211;86
NIZEROLLES;300;35.0;14.6;15.3;20.9;76;24;23300;61;AUVERGNE;440;03;46.1072966632;3.64408039597;86
MONTALEMBERT;300;34.9;16.9;17.8;22.6;79;21;21600;64;POITOU-CHARENTES;443;79;46.1021234288;0.170162348938;86
AYENCOURT;200;32.8;12.0;20.8;20.1;85;15;26000;58;PICARDIE;431;80;49.6264865136;2.55113103063;86
PIEGUT-PLUVIERS;1200;33.0;14.3;15.6;24.0;74;26;25500;66;AQUITAINE;422;24;45.6318996846;0.699945364852;86
NEULLIAC;1500;34.6;14.4;18.9;24.2;88;12;23500;59;BRETAGNE;445;56;48.1221729003;-2.97176123226;86
BELMONT;200;32.9;16.9;20.8;24.4;89;11;25300;67;MIDI-PYRENEES;406;32;43.6885351272;0.247544246652;86
SAUVILLE;200;33.0;17.8;15.0;24.9;85;15;24200;69;LORRAINE;434;88;48.1485506254;5.74281944188;86
FONTAINE-LES-RIBOUTS;200;32.9;16.6;18.5;23.5;74;26;25900;60;CENTRE;445;28;48.6550452018;1.24758940203;85
BRETTEVILLE-DU-GRAND-CAUX;1300;31.8;14.9;20.3;21.7;81;19;24800;61;HAUTE-NORMANDIE;444;76;49.6653391098;0.385967145097;85
IHOLDY;500;33.1;12.5;22.0;20.1;80;20;24400;57;AQUITAINE;426;64;43.2735914336;-1.17738320434;85
SAINT-REMY-SUR-AVRE;3700;33.8;15.4;19.4;21.4;76;24;24200;63;CENTRE;407;28;48.7491986422;1.23713784044;85
BITSCHHOFFEN;500;30.1;14.8;21.2;24.8;84;16;25600;64;ALSACE;424;67;48.8628351945;7.62438682496;85
MONS;500;33.9;16.5;15.4;22.1;80;20;24400;54;POITOU-CHARENTES;445;17;45.8060909657;-0.337202264129;85
LE VIVIER;100;34.2;17.5;16.0;23.8;80;20;25600;57;LANGUEDOC-ROUSSILLON;403;66;42.7641929196;2.44351748783;85
BOULAY-MOSELLE;4900;33.0;12.3;15.0;20.2;87;13;22900;62;LORRAINE;436;57;49.1779901346;6.49842566408;85
ESTREES-DENIECOURT;300;33.3;17.0;21.7;20.6;84;16;22700;65;PICARDIE;437;80;49.8718517674;2.82257224293;85
GELANNES;700;34.8;16.9;18.0;23.2;75;25;23400;68;CHAMPAGNE-ARDENNE;404;10;48.4754200511;3.6678407267;85
CHENOVES;200;32.7;17.3;21.4;24.1;86;14;23000;68;BOURGOGNE;443;71;46.6662558007;4.70092580314;85
LA BOUEXIERE;3800;33.5;12.4;15.7;20.3;76;24;23600;63;BRETAGNE;427;35;48.1743733249;-1.43646357128;85
BEAUMAT;100;35.0;16.0;19.4;23.0;76;24;23300;58;MIDI-PYRENEES;443;46;44.6507678685;1.51740192285;85
SAINT-JUST-D'AVRAY;700;33.4;13.3;21.8;21.0;82;18;22800;62;RHONE-ALPES;429;69;45.9996999746;4.4526558128;85
MARIMBAULT;200;33.4;13.3;20.2;25.0;74;26;26000;64;AQUITAINE;405;33;44.4100701595;-0.258019615716;85
OZENAY;200;31.7;13.5;18.7;20.5;84;16;24300;67;BOURGOGNE;438;71;46.5352832941;4.84332783222;85
PLAISANCE;500;33.6;16.7;18.0;24.0;81;19;22500;68;AQUITAINE;418;24;44.6984219504;0.555541273455;85
CERNY-EN-LAONNOIS;100;33.4;12.2;17.1;22.1;72;28;24400;64;PICARDIE;417;02;49.4500150087;3.67982439455;85
BUIGNY-L'ABBE;300;33.9;12.8;17.3;21.2;80;20;22000;64;PICARDIE;426;80;50.0970703455;1.94454979441;85
LA BATAILLE;100;34.5;15.0;15.3;24.4;83;17;21200;63;POITOU-CHARENTES;442;79;46.0857477459;-0.109623150182;85
NOALHAT;200;34.3;14.1;16.1;21.1;89;11;21600;66;AUVERGNE;418;63;45.918505761;3.46291211176;85
LA CORNUAILLE;1000;34.6;12.3;15.9;23.6;80;20;25500;59;PAYS DE LA LOIRE;388;49;47.5247468295;-0.995630411608;85
VRITZ;700;32.9;13.2;21.3;24.2;82;18;23200;65;PAYS DE LA LOIRE;440;44;47.5890460017;-1.07270635632;85
SAINT-GERMAIN-DU-PUY;4800;31.1;13.3;16.9;23.6;82;18;23800;69;CENTRE;436;18;47.1076641241;2.47889343421;85
SAINT-ALEXANDRE;1100;34.8;17.8;16.3;23.9;84;16;25500;51;LANGUEDOC-ROUSSILLON;418;30;44.2239447184;4.63170135907;85
BORDERES;700;34.4;17.6;15.7;24.1;79;21;21400;62;AQUITAINE;425;64;43.2047226344;-0.212865402876;85
SEVRIER;3800;33.6;12.2;15.2;21.0;90;10;24200;57;RHONE-ALPES;442;74;45.8555012829;6.13806338899;85
VAROGNE;100;32.4;12.3;16.5;22.2;87;13;24900;65;FRANCHE-COMTE;410;70;47.7190126678;6.20728397771;85
LAROCHE-SAINT-CYDROINE;1400;33.2;12.1;18.1;20.8;81;19;23400;60;BOURGOGNE;444;89;47.973029644;3.46898272005;85
SOUGE;500;31.5;14.4;19.3;24.9;80;20;24900;63;CENTRE;425;41;47.7786428573;0.725882199174;85
SAINT-SOZY;500;34.9;13.4;16.9;24.6;83;17;26000;47;MIDI-PYRENEES;425;46;44.8817461552;1.55074989769;85
VELLES;100;34.3;17.2;15.2;22.3;78;22;22200;66;CHAMPAGNE-ARDENNE;417;52;47.8338089389;5.72379027286;85
FOURS-EN-VEXIN;200;34.7;16.8;17.1;24.4;83;17;24700;51;HAUTE-NORMANDIE;418;27;49.1874063789;1.60865557938;85
MONTREUIL-BELLAY;4000;34.2;17.7;17.3;20.2;78;22;24000;64;PAYS DE LA LOIRE;400;49;47.1287547622;-0.125278817925;85
SAINT-JULIEN-BOUTIERES;200;33.3;17.8;15.7;24.3;85;15;25500;57;RHONE-ALPES;417;07;44.9687620295;4.34665154898;85
BAZICOURT;300;33.7;17.8;18.9;22.6;74;26;23600;66;PICARDIE;417;60;49.3431574033;2.62299591456;85
LA SALVETAT-PEYRALES;1100;33.6;17.7;19.5;23.7;85;15;24100;59;MIDI-PYRENEES;424;12;44.2210453595;2.19673523902;85
BELRUPT;100;31.9;14.0;16.3;22.1;81;19;24300;69;LORRAINE;445;88;48.0912515874;6.08965093071;85
LE BENY-BOCAGE;1000;34.4;16.4;18.3;24.4;74;26;24700;58;BASSE-NORMANDIE;427;14;48.9311056012;-0.829700488318;85
CRUZY;1000;30.7;13.1;21.9;22.1;79;21;25900;65;LANGUEDOC-ROUSSILLON;416;34;43.3518501139;2.93451082669;85
CHAMPOLEON;100;31.7;15.8;16.0;20.4;75;25;24800;65;PROVENCE-ALPES-COTE D'AZUR;433;05;44.7457461011;6.27312209866;85
PRADIERS;100;30.6;16.6;15.1;23.1;83;17;25700;67;AUVERGNE;447;15;45.2839972375;2.92137599236;85
SAINT-REMY-DE-CHAUDES-AIGUES;100;33.5;16.5;16.7;20.1;85;15;26000;52;AUVERGNE;419;15;44.7672253376;3.02660075086;85
BIZENEUILLE;300;32.6;16.4;21.1;21.9;80;20;23700;69;AUVERGNE;408;03;46.4015746011;2.73071658216;85
ANTIGNAC;100;34.0;17.7;20.9;23.6;89;11;23900;61;MIDI-PYRENEES;413;31;42.8311657614;0.587701526157;85
ALLIERES;100;34.6;12.8;17.6;22.0;83;17;24000;54;MIDI-PYRENEES;427;09;43.0385438599;1.36390734959;85
DAMBLAIN;300;34.2;15.3;15.3;22.2;89;11;23700;66;LORRAINE;397;88;48.091128614;5.66870358714;85
LA SABOTTERIE;100;34.8;16.3;15.0;20.6;71;29;25400;66;CHAMPAGNE-ARDENNE;393;08;49.5447543677;4.66996190814;85
RABASTENS-DE-BIGORRE;1400;30.6;17.8;17.3;24.4;87;13;25000;69;MIDI-PYRENEES;447;65;43.3859669642;0.156153624575;85
CAZAUX-D'ANGLES;100;34.3;16.2;18.3;20.5;85;15;25200;68;MIDI-PYRENEES;379;32;43.6564434737;0.265936475433;85
BARRET-DE-LIOURE;100;33.2;12.1;20.7;22.2;75;25;24900;61;RHONE-ALPES;422;26;44.1754211867;5.51622125908;85
ORGIBET;200;33.6;13.0;15.4;23.9;85;15;21200;69;MIDI-PYRENEES;429;09;42.9263246353;0.938509265904;85
CLERMONT-POUYGUILLES;200;29.9;13.0;21.1;20.2;90;10;25900;69;MIDI-PYRENEES;446;32;43.4769070936;0.524132562872;85
SAULZET;300;32.5;17.5;20.6;21.1;73;27;24800;68;AUVERGNE;437;03;46.1377242918;3.22134877309;85
BRETAGNE-DE-MARSAN;1400;33.2;16.2;18.9;20.7;86;14;23900;68;AQUITAINE;405;40;43.8365888593;-0.46531772433;85
BOUVESSE-QUIRIEU;1400;32.7;13.7;21.1;24.9;86;14;25300;66;RHONE-ALPES;401;38;45.7838215113;5.41483452753;85
GARONS;4400;30.8;18.0;17.0;22.0;83;17;25600;62;LANGUEDOC-ROUSSILLON;431;30;43.7717357731;4.43848561872;85
CORENC;3800;32.5;16.9;20.3;23.3;83;17;25400;66;RHONE-ALPES;397;38;45.2267664587;5.75814470454;85
MESIGNY;700;31.2;17.0;16.7;24.9;84;16;24500;66;RHONE-ALPES;426;74;45.9864538672;6.00616944554;85
DINTEVILLE;100;33.9;13.8;16.3;22.7;85;15;26000;61;CHAMPAGNE-ARDENNE;393;52;48.0375731521;4.80723999451;85
ESLEY;200;34.6;17.2;17.0;24.8;72;28;25900;69;LORRAINE;392;88;48.1752203553;6.05828858575;85
LE BERNARD;1000;33.3;17.0;21.2;24.0;76;24;25100;58;PAYS DE LA LOIRE;420;85;46.44832528;-1.43979865314;85
CEAUX-D'ALLEGRE;500;34.6;14.8;15.9;21.5;87;13;21500;63;AUVERGNE;443;43;45.1831789556;3.7598519485;85
MAUPREVOIR;700;33.4;17.2;19.0;20.6;79;21;23300;69;POITOU-CHARENTES;410;86;46.1644495651;0.516322833549;85
ECLY;200;34.5;14.8;18.9;23.5;78;22;23800;67;CHAMPAGNE-ARDENNE;400;08;49.5544898631;4.28769534327;85
LACAPELLE-BIRON;500;33.5;17.0;18.4;22.2;82;18;25800;59;AQUITAINE;402;47;44.6004856905;0.898890688918;85
SAINT-SORLIN-EN-BUGEY;1100;34.9;14.4;16.6;22.7;83;17;22800;57;RHONE-ALPES;448;01;45.886308438;5.37608915006;85
HAUTEVILLE-SUR-MER;600;31.6;12.1;19.4;24.3;90;10;25100;64;BASSE-NORMANDIE;444;50;48.9741132204;-1.54436628419;85
BEAUMONT-SUR-OISE;9000;32.8;12.6;21.2;24.2;72;28;23700;68;ILE-DE-FRANCE;418;95;49.1400981058;2.30021267239;85
ROUVRES-SOUS-MEILLY;100;34.2;17.1;20.2;24.4;75;25;25500;57;BOURGOGNE;434;21;47.2062707536;4.5897431954;85
SAMSON;100;34.7;17.0;19.4;21.9;74;26;22300;64;FRANCHE-COMTE;423;25;47.0533990427;5.87931888602;85
MONISTROL-SUR-LOIRE;8700;33.4;17.0;17.7;22.2;79;21;23100;60;AUVERGNE;425;43;45.2906264528;4.18362572726;85
UNIEUX;8600;32.0;15.9;18.4;24.2;73;27;24600;65;RHONE-ALPES;424;42;45.4069770909;4.2690668711;85
MARTAINVILLE-EPREVILLE;700;34.7;12.4;17.8;21.4;83;17;24800;59;HAUTE-NORMANDIE;401;76;49.451874767;1.29465075499;85
LUBY-BETMONT;100;34.5;14.0;15.3;20.1;87;13;21400;65;MIDI-PYRENEES;417;65;43.2961360859;0.294464255946;85
VILLERS-LE-SEC;100;33.9;16.1;17.0;22.1;80;20;25000;67;LORRAINE;394;55;48.6244341706;5.29962310593;85
BASLIEUX;600;33.0;15.2;16.3;22.8;78;22;22600;69;LORRAINE;436;54;49.4380044151;5.75072929196;85
BARAIZE;300;34.6;12.7;19.2;21.9;79;21;22000;64;CENTRE;416;36;46.480854966;1.57028016137;85
SAINT-MARCEL-LES-SAUZET;1100;30.5;13.5;21.4;23.1;90;10;25500;63;RHONE-ALPES;440;26;44.6007862089;4.80435722429;85
SAINT-GERMAIN-SUR-MEUSE;300;30.5;12.8;19.6;22.0;87;13;25900;66;LORRAINE;425;55;48.6480131272;5.72350490371;85
SAINT-THOMAS-LA-GARDE;600;29.8;13.0;20.7;23.3;83;17;25900;69;RHONE-ALPES;440;42;45.5713650794;4.08597131676;85
BOUXIERES-AUX-BOIS;100;34.7;14.5;21.5;20.2;89;11;24000;69;LORRAINE;394;88;48.2603726677;6.32068900232;85
RIMLING;600;32.1;12.9;20.7;23.1;87;13;24800;69;LORRAINE;414;57;49.0931477366;7.25838170063;85
MONTROND;100;31.4;14.6;15.8;22.9;83;17;24600;68;PROVENCE-ALPES-COTE D'AZUR;432;05;44.3867626789;5.74626176371;85
TOMBLAINE;7700;31.8;17.5;20.6;20.5;88;12;22700;66;LORRAINE;433;54;48.6859541528;6.22129283302;85
ISLE-ET-BARDAIS;300;32.6;13.9;20.1;21.0;88;12;23700;66;AUVERGNE;419;03;46.6820455059;2.77701869373;85
LE CRES;7600;31.4;14.3;21.7;20.5;73;27;25800;65;LANGUEDOC-ROUSSILLON;412;34;43.6540978695;3.93608851243;85
VILLENEUVE-SUR-BELLOT;1100;32.6;12.1;18.0;22.7;79;21;23300;65;ILE-DE-FRANCE;443;77;48.8731734921;3.33324327712;85
CHAOURCE;1100;33.2;13.1;17.6;22.8;80;20;25900;56;CHAMPAGNE-ARDENNE;416;10;48.0548103736;4.14007416764;85
RUMILLY;300;30.5;17.5;18.7;23.7;81;19;25100;67;NORD-PAS-DE-CALAIS;446;62;50.5793719163;2.01782227688;85
LA CHAPELLE-SAINT-SAUVEUR;700;32.4;13.6;17.6;25.0;86;14;25100;57;BOURGOGNE;439;71;46.8468026106;5.26448829043;85
FONTAINE-LES-DIJON;9100;32.5;13.8;21.9;24.2;90;10;22400;65;BOURGOGNE;440;21;47.347590176;5.0247087947;85
CARTIGNY;700;34.4;13.5;18.9;24.4;76;24;25800;60;PICARDIE;403;80;49.9086884167;3.0172741613;85
SAINT-ANDRE-LEZ-LILLE;10800;30.7;14.2;19.7;22.2;88;12;23900;69;NORD-PAS-DE-CALAIS;440;59;50.6597692969;3.04609387889;85
VILLE-SUR-YRON;300;33.0;12.3;21.5;22.0;72;28;25100;66;LORRAINE;446;54;49.1209779475;5.87272709272;85
JURQUES;700;34.4;16.7;21.3;22.5;78;22;26000;69;BASSE-NORMANDIE;385;14;49.0211940681;-0.745768584372;85
BROUSSY-LE-PETIT;100;34.2;15.0;21.9;23.7;82;18;25600;65;CHAMPAGNE-ARDENNE;375;51;48.7858869706;3.83244940433;85
COSGES;300;35.0;16.6;19.5;22.1;86;14;20100;65;FRANCHE-COMTE;440;39;46.7469594031;5.39199282971;85
GREFFEIL;100;30.4;14.9;17.0;23.1;84;16;25900;64;LANGUEDOC-ROUSSILLON;444;11;43.0745101503;2.39378914841;85
SAINT-GENIEZ-O-MERLE;100;33.7;12.6;18.8;24.1;84;16;24700;54;LIMOUSIN;440;19;45.08248923;2.05890392935;85
VILLEDOUX;1200;33.3;16.5;15.4;24.2;86;14;24100;65;POITOU-CHARENTES;398;17;46.2434012234;-1.07321328867;85
CAPIAN;600;33.8;14.1;21.2;24.8;85;15;25200;57;AQUITAINE;414;33;44.716585777;-0.327839975905;85
MOREY-SAINT-DENIS;700;34.8;12.8;17.5;22.1;73;27;23700;58;BOURGOGNE;449;21;47.1999076803;4.96207733314;85
MARSAT;1200;34.0;14.4;15.3;24.7;84;16;22700;62;AUVERGNE;436;63;45.872900243;3.08321989305;85
SAINT-PERE;1200;34.6;17.5;19.7;22.2;72;28;23800;69;BOURGOGNE;415;58;47.4038457466;2.97705623439;85
BERLING;300;31.9;16.8;16.7;22.8;85;15;23700;68;LORRAINE;441;57;48.7999822826;7.24350642684;85
CHATEAUNEUF-D'ENTRAUNES;100;33.5;14.1;15.8;21.7;83;17;24500;58;PROVENCE-ALPES-COTE D'AZUR;437;06;44.1639701619;6.83506555715;85
LA CELLE-DUNOISE;600;30.9;13.5;15.1;24.6;87;13;25400;66;LIMOUSIN;410;23;46.311979886;1.78178481462;85
PREMIERFAIT;100;34.6;13.2;15.4;23.7;88;12;25300;49;CHAMPAGNE-ARDENNE;443;10;48.5029794134;4.02255796125;85
BEUGNATRE;100;34.5;12.8;17.7;23.8;80;20;20600;69;NORD-PAS-DE-CALAIS;441;62;50.1322737737;2.87602272016;85
SAINT-JOUIN-DE-MARNES;600;32.5;16.0;21.4;20.8;85;15;24500;67;POITOU-CHARENTES;402;79;46.8814213211;-0.0550217260198;85
BRAGELOGNE-BEAUVOIR;300;34.2;12.1;18.1;20.4;79;21;25100;51;CHAMPAGNE-ARDENNE;448;10;47.9698706523;4.26657498666;85
BOURGON;600;32.8;14.7;19.9;25.0;84;16;23200;66;PAYS DE LA LOIRE;445;53;48.1603649988;-1.04536225795;85
GRUSON;1100;32.3;16.1;15.5;20.6;87;13;25300;60;NORD-PAS-DE-CALAIS;434;59;50.5924125411;3.21559274036;85
MONTASTRUC;300;34.9;12.3;15.1;24.5;87;13;24900;49;MIDI-PYRENEES;440;82;44.1037069376;1.29437012886;85
CLINCHAMPS-SUR-ORNE;1100;34.8;13.1;18.9;24.6;72;28;22500;68;BASSE-NORMANDIE;438;14;49.0827905311;-0.403970928177;85
VARENNES;300;34.9;14.2;18.0;22.4;86;14;20100;65;MIDI-PYRENEES;433;31;43.4764363476;1.69248446049;85
LA COLOMBE;600;32.1;12.5;21.9;23.3;77;23;25300;62;BASSE-NORMANDIE;423;50;48.8755777251;-1.19526749563;85
SAINT-AUBIN-SUR-LOIRE;300;33.9;13.8;20.3;24.2;78;22;22400;66;BOURGOGNE;427;71;46.5678204278;3.76149865404;85
ROGECOURT;100;34.5;14.4;19.9;24.2;87;13;20700;69;PICARDIE;441;02;49.6492919859;3.41550074354;85
LAGOS;500;31.6;14.7;16.1;24.9;80;20;25500;62;AQUITAINE;425;64;43.2122827806;-0.220943768634;85
BUXIERES-LES-MINES;1100;33.4;13.3;18.6;23.5;88;12;22500;66;AUVERGNE;428;03;46.4698341323;2.95493090181;85
MOUTERHOUSE;300;31.4;17.2;19.8;21.5;81;19;25300;67;LORRAINE;412;57;48.9903559218;7.43839841263;85
LES GRANDES-ARMOISES;100;32.6;17.1;17.6;21.6;76;24;24400;69;CHAMPAGNE-ARDENNE;447;08;49.5292881443;4.89884201753;85
AUXELLES-BAS;500;32.2;14.3;19.3;20.7;77;23;26000;64;FRANCHE-COMTE;411;90;47.7286757608;6.78389507054;85
SAINT-ROMAIN-D'URFE;300;31.3;17.1;18.7;22.8;78;22;25800;63;RHONE-ALPES;447;42;45.8856641842;3.81783953207;85
SAULXURES;100;34.6;17.0;16.0;24.2;85;15;25100;52;CHAMPAGNE-ARDENNE;438;52;47.955255252;5.57978520657;85
GUMOND;100;34.5;16.3;16.3;24.4;78;22;21000;69;LIMOUSIN;433;19;45.2198203568;1.96223391046;85
PONTHION;100;31.2;17.6;16.2;21.0;78;22;25800;61;CHAMPAGNE-ARDENNE;431;51;48.7551656451;4.71748764846;85
MONTREVAULT;1300;32.5;16.5;19.6;23.9;87;13;25100;64;PAYS DE LA LOIRE;405;49;47.255395404;-1.05160971025;85
BRIEY;5500;34.9;16.7;15.5;24.3;82;18;23300;66;LORRAINE;385;54;49.2557914726;5.97046491466;85
ALLAINVILLE;300;35.0;13.3;19.7;22.7;89;11;25400;59;ILE-DE-FRANCE;390;78;48.4678049422;1.90248656235;85
CHARRECEY;300;33.8;12.5;20.5;20.5;90;10;23100;64;BOURGOGNE;415;71;46.8363564868;4.66839372197;85
DARMANNES;300;34.8;15.5;19.7;20.3;73;27;25800;57;CHAMPAGNE-ARDENNE;407;52;48.1680388839;5.22269064305;85
BAUME-LES-DAMES;5300;33.6;14.4;17.6;20.3;75;25;23300;63;FRANCHE-COMTE;414;25;47.3544401776;6.34345370275;85
CARGESE;1100;33.7;14.2;18.0;20.8;79;21;24200;67;CORSE;404;2A;42.1544254567;8.62659836115;85
HERY;100;34.3;17.4;18.3;20.2;71;29;25500;63;BOURGOGNE;401;58;47.2623486952;3.59205862673;85
MONT-SAINT-PERE;700;33.5;13.2;21.3;20.5;81;19;24200;61;PICARDIE;408;02;49.0816980947;3.47715449247;85
GISSEY-LE-VIEIL;100;34.6;17.6;21.3;23.2;81;19;20400;64;BOURGOGNE;441;21;47.3221932401;4.4861696452;85
SAINT-CAPRAISE-DE-LALINDE;500;32.7;12.0;18.6;24.7;75;25;23500;66;AQUITAINE;444;24;44.8463175043;0.655294285249;85
AIFFRES;5200;34.9;16.8;19.6;23.2;78;22;24800;53;POITOU-CHARENTES;435;79;46.2820504466;-0.41429097467;85
THUN-SAINT-AMAND;1100;32.4;16.4;17.0;23.9;84;16;23600;66;NORD-PAS-DE-CALAIS;449;59;50.4847098079;3.44835522897;85
CHATEAU-RENAULT;5200;34.0;17.6;20.1;23.2;83;17;25100;51;CENTRE;422;37;47.592456846;0.909725910608;85
CRANDELLES;700;33.6;14.8;19.9;23.4;80;20;22600;63;AUVERGNE;443;15;44.9569827507;2.36041501133;85
CHAMOUILLE;300;30.8;17.6;20.0;24.8;87;13;24500;67;PICARDIE;437;02;49.4720646954;3.67062673062;85
BUGNIERES;100;34.3;16.4;20.5;24.9;76;24;23300;61;CHAMPAGNE-ARDENNE;447;52;47.9610345188;5.08914316906;85
CAGNY;1300;33.4;17.7;15.7;21.4;71;29;23900;67;PICARDIE;422;80;49.8505763421;2.33749287161;85
RAYOL-CANADEL-SUR-MER;700;33.2;13.9;16.4;22.9;86;14;25000;57;PROVENCE-ALPES-COTE D'AZUR;421;83;43.1642973413;6.47477478292;85
GREZ;300;34.9;14.8;17.8;22.2;87;13;25400;69;PICARDIE;379;60;49.6337227766;1.97882087154;85
SAINT-MARCEL-EN-MARCILLAT;100;32.0;15.1;18.1;24.1;83;17;25800;57;AUVERGNE;436;03;46.1532804539;2.58075381141;85
FROIDOS;100;32.7;17.5;19.4;24.1;90;10;23100;66;LORRAINE;441;55;49.0603189577;5.11809128238;85
CEZIA;100;34.1;16.0;18.6;20.6;72;28;23600;67;FRANCHE-COMTE;438;39;46.3602146611;5.57531503612;85
CHATEAUNEUF;100;33.0;15.3;21.0;22.3;80;20;25700;57;BOURGOGNE;441;71;46.2104681552;4.26056533405;85
SAINT-GILDAS;300;33.9;12.0;21.9;20.2;73;27;24400;66;BRETAGNE;414;22;48.4221536178;-3.00656525522;85
BERLISE;100;33.8;14.2;22.0;23.9;86;14;24600;66;PICARDIE;388;02;49.6622290606;4.11314086897;85
LA HOGUETTE;700;30.9;12.0;20.4;23.9;77;23;25500;66;BASSE-NORMANDIE;441;14;48.8530698263;-0.160675825982;85
MAISOD;300;33.0;13.9;17.6;22.4;84;16;24300;61;FRANCHE-COMTE;415;39;46.4791457718;5.69233262933;85
EPREVILLE-PRES-LE-NEUBOURG;500;33.8;16.8;19.2;22.8;84;16;24900;59;HAUTE-NORMANDIE;402;27;49.1295509765;0.876279430703;85
SUBLIGNY;300;34.5;14.9;18.3;22.0;84;16;22700;57;BASSE-NORMANDIE;442;50;48.7530084367;-1.35897250285;85
FAUDOAS;300;34.0;15.2;18.4;22.7;77;23;25200;63;MIDI-PYRENEES;400;82;43.8335413145;0.967332331087;85
BOSC-EDELINE;300;33.5;17.8;15.7;24.0;79;21;24100;60;HAUTE-NORMANDIE;417;76;49.5743992317;1.42966771181;85
PRUILLE-LE-CHETIF;1300;32.1;16.0;19.6;24.7;72;28;25900;63;PAYS DE LA LOIRE;426;72;47.9926394002;0.10552280267;85
LINAS;6400;30.7;14.6;19.2;23.5;88;12;25700;60;ILE-DE-FRANCE;422;91;48.6255061941;2.25135348658;85
BETAILLE;1100;33.2;16.2;18.8;23.5;72;28;24300;68;MIDI-PYRENEES;449;46;44.9424463587;1.73672663964;85
MACHE;1300;34.2;14.0;20.4;22.7;86;14;23400;67;PAYS DE LA LOIRE;394;85;46.771364944;-1.69526445062;85
SAINT-CYR-LA-RIVIERE;500;35.0;14.9;18.7;22.5;79;21;25600;47;ILE-DE-FRANCE;434;91;48.3501033292;2.13743376012;85
LANDRETHUN-LES-ARDRES;700;34.5;13.5;15.6;21.0;77;23;23800;56;NORD-PAS-DE-CALAIS;424;62;50.816140117;1.96682595063;85
SAINT-CHRISTAUD;100;33.9;13.9;18.6;20.6;82;18;23900;67;MIDI-PYRENEES;394;32;43.5257567477;0.261157404352;85
THEDIRAC;300;34.3;14.1;16.1;20.1;71;29;23900;62;MIDI-PYRENEES;421;46;44.5993894609;1.32059065502;85
LE CARDONNOIS;100;34.0;16.0;19.9;23.7;82;18;24000;58;PICARDIE;419;80;49.6311653117;2.48308861146;85
SAINT-SYMPHORIEN-DES-BRUYERES;500;33.2;17.9;15.7;23.0;78;22;24500;61;BASSE-NORMANDIE;431;61;48.7864528297;0.557396047758;85
POUY-LOUBRIN;100;33.5;13.0;17.8;23.0;89;11;25800;58;MIDI-PYRENEES;408;32;43.4652677756;0.611644470499;85
SOUCE;200;33.7;17.3;20.7;23.8;88;12;22500;64;PAYS DE LA LOIRE;426;53;48.4670641596;-0.67042009651;85
DAME-MARIE;200;34.1;15.5;17.6;20.4;72;28;25200;63;BASSE-NORMANDIE;409;61;48.3547234316;0.618155918935;85
TROUSSURES;200;30.9;14.9;15.8;23.4;82;18;25500;64;PICARDIE;448;60;49.3821112605;1.9561782833;85
AVREMESNIL;900;33.0;12.7;15.5;20.3;90;10;24100;69;HAUTE-NORMANDIE;410;76;49.8501863679;0.932942833236;85
OSSUN;2300;34.7;16.8;21.1;21.5;85;15;20700;62;MIDI-PYRENEES;434;65;43.1786184221;-0.0428005714329;85
TAILLETTE;400;34.6;12.9;18.1;22.9;86;14;20300;69;CHAMPAGNE-ARDENNE;444;08;49.9272427923;4.47480367257;85
BOURBRIAC;2300;34.2;17.6;18.1;24.0;85;15;22600;65;BRETAGNE;409;22;48.465978498;-3.19983137965;85
MARGES;900;35.0;13.3;21.7;24.0;74;26;21300;66;RHONE-ALPES;418;26;45.1319031248;5.03106608255;85
PRUNO;200;31.8;15.8;19.3;22.3;80;20;24900;64;CORSE;420;2B;42.4243509668;9.44755598733;85
MIGNIERES;800;32.3;16.9;20.3;23.6;71;29;25400;65;CENTRE;435;28;48.3607988018;1.42399697169;85
LA BREOLE;400;30.3;15.3;21.7;21.2;87;13;25700;68;PROVENCE-ALPES-COTE D'AZUR;420;04;44.4434662119;6.28924750363;85
CHALLES-LA-MONTAGNE;200;31.8;17.7;20.2;20.6;89;11;25100;62;RHONE-ALPES;437;01;46.1221539654;5.45755377201;85
GRANZAY-GRIPT;900;30.1;17.1;20.2;20.2;90;10;25300;66;POITOU-CHARENTES;434;79;46.2259924524;-0.480205972926;85
CORBELIN;2100;32.5;12.8;15.5;24.4;82;18;23400;64;RHONE-ALPES;414;38;45.6024192088;5.55271499318;85
SAINT-PIERRE-DU-FRESNE;200;32.2;12.3;16.6;22.7;88;12;24900;64;BASSE-NORMANDIE;408;14;49.0341253514;-0.765926909139;85
VRONCOURT;200;32.8;15.0;20.4;20.4;78;22;24800;59;LORRAINE;446;54;48.4591497683;6.07725776885;85
SAINT-GIRONS-D'AIGUEVIVES;900;33.7;17.4;18.0;25.0;81;19;25600;53;AQUITAINE;448;33;45.1466416615;-0.538156488225;85
UNCHAIR;200;34.7;15.7;19.9;22.5;77;23;21800;63;CHAMPAGNE-ARDENNE;416;51;49.2870911732;3.74648367671;85
MIRIBEL-LANCHATRE;400;34.9;14.1;19.4;24.6;76;24;25700;65;RHONE-ALPES;383;38;44.973161587;5.61005061532;85
ROISEY;900;33.8;16.4;15.3;23.3;73;27;25400;58;RHONE-ALPES;434;42;45.391280992;4.65752995946;85
OLLEZY;200;34.4;16.9;16.1;24.0;72;28;24500;63;PICARDIE;416;02;49.729996536;3.14607261695;85
COMPOLIBAT;400;32.1;17.1;19.1;22.9;76;24;24300;66;MIDI-PYRENEES;442;12;44.3793468455;2.1863960416;85
MONTFORT;400;32.5;13.9;17.6;23.6;77;23;25400;67;PROVENCE-ALPES-COTE D'AZUR;403;04;44.0591709898;5.95286093626;85
VIDAILLAC;200;33.2;17.6;17.3;20.9;81;19;25000;63;MIDI-PYRENEES;406;46;44.346009469;1.81940730105;85
SALENCY;900;31.5;13.3;21.7;22.1;90;10;23800;67;PICARDIE;439;60;49.5876754737;3.04632508396;85
POISVILLIERS;400;34.9;13.3;16.9;24.6;80;20;25900;46;CENTRE;432;28;48.5063843494;1.46123630371;85
VILLEBICHOT;400;30.7;12.8;21.0;22.3;85;15;25100;69;BOURGOGNE;415;21;47.1401359622;5.04221971149;85
SAINT-SAMSON;400;32.5;15.9;21.9;24.1;82;18;23100;68;PAYS DE LA LOIRE;437;53;48.4856553347;-0.186804588667;85
SAINT-MAURICE;800;34.9;14.8;15.2;21.8;73;27;24000;64;AUVERGNE;405;63;45.6705565807;3.23800296875;85
BIBICHE;400;32.6;12.9;20.1;24.3;79;21;25600;64;LORRAINE;398;57;49.3315599598;6.47689109496;85
AUMALE;2400;34.0;17.8;20.3;20.0;86;14;23800;59;HAUTE-NORMANDIE;415;76;49.7693741515;1.7549467172;85
VER;400;33.6;12.9;20.0;24.0;76;24;25200;67;BASSE-NORMANDIE;402;50;48.895581747;-1.39039156201;85
MELAY;900;34.1;17.5;20.6;20.0;77;23;23300;60;BOURGOGNE;426;71;46.1993430373;4.01334555514;85
DOUDRAC;100;33.3;15.4;19.0;20.6;87;13;25200;62;AQUITAINE;405;47;44.6644247017;0.679748362651;85
MOYENVIC;400;33.4;16.6;21.1;22.0;72;28;25300;61;LORRAINE;419;57;48.7832829713;6.57005924028;85
FORGES;200;34.7;17.9;20.9;20.0;86;14;22800;56;PAYS DE LA LOIRE;446;49;47.2144953715;-0.23712263964;85
SANCERRE;1700;33.5;16.6;17.5;21.2;81;19;23100;60;CENTRE;420;18;47.3256994042;2.82156691385;85
ETROCHEY;200;34.8;16.4;21.1;24.7;84;16;20200;66;BOURGOGNE;429;21;47.8893912326;4.51963624928;85
GAJA-LA-SELVE;200;33.1;15.9;20.8;23.1;79;21;23400;64;LANGUEDOC-ROUSSILLON;421;11;43.2002672406;1.88364731098;85
SAINT-ETIENNE-EN-BRESSE;800;34.2;17.8;21.6;20.2;80;20;23400;56;BOURGOGNE;428;71;46.7060490635;5.06223001474;85
AUJAC;200;34.8;16.7;16.9;22.9;84;16;22700;59;LANGUEDOC-ROUSSILLON;415;30;44.3551368588;4.01860850568;85
LOUVIGNE-DE-BAIS;1700;34.3;16.1;16.1;22.7;80;20;21200;64;BRETAGNE;435;35;48.0522095083;-1.33866165819;85
SAINT-BARBANT;400;30.9;14.9;21.4;21.0;83;17;25500;69;LIMOUSIN;425;87;46.2020674785;0.853464651387;85
PROUSSY;400;34.3;15.3;21.0;24.0;83;17;22600;60;BASSE-NORMANDIE;441;14;48.8795303897;-0.552856088787;85
SAINT-OUEN-DE-THOUBERVILLE;2300;33.6;12.6;17.6;24.2;77;23;25800;69;HAUTE-NORMANDIE;390;27;49.3490825032;0.895681824857;85
LA FRETTE;200;33.3;15.3;19.8;24.5;83;17;25800;52;BOURGOGNE;442;71;46.6412331111;5.04960758377;85
MONS;400;31.3;15.0;20.0;24.1;81;19;25400;64;AUVERGNE;420;63;46.0004480585;3.42241354762;85
ROLLOT;800;33.8;16.4;20.3;23.0;87;13;22800;62;PICARDIE;434;80;49.5939801333;2.64865776071;85
ALLEVES;400;32.3;13.8;20.4;21.4;79;21;23900;64;RHONE-ALPES;449;74;45.7588655872;6.08634740225;85
SAULNES;2300;32.3;15.2;17.1;24.4;79;21;26000;65;LORRAINE;397;54;49.5293904249;5.82642469537;85
NEVILLE-SUR-MER;200;33.3;16.0;19.3;20.8;78;22;24600;67;BASSE-NORMANDIE;400;50;49.6915915371;-1.33947182303;85
SAINT-SYLVESTRE;900;35.0;12.4;18.4;24.7;73;27;26000;66;LIMOUSIN;379;87;45.9944455486;1.36513414834;85
LAGARDIOLLE;200;31.7;17.2;15.4;24.4;86;14;24700;69;MIDI-PYRENEES;420;81;43.4996169804;2.0926664241;85
CRY;200;35.0;16.9;17.7;20.2;88;12;21700;60;BOURGOGNE;418;89;47.7033445336;4.22891521589;85
NANS;100;31.1;13.9;15.6;24.2;88;12;24700;66;FRANCHE-COMTE;431;25;47.4763314915;6.41042032823;85
OBERHASLACH;1800;34.4;17.5;20.2;24.4;79;21;23900;55;ALSACE;444;67;48.5685057118;7.29548789735;85
VELLECHES;400;35.0;13.6;19.9;21.1;81;19;20300;67;POITOU-CHARENTES;438;86;46.9391643097;0.526863341682;85
SMERMESNIL;400;34.0;16.5;15.5;23.7;88;12;25400;50;HAUTE-NORMANDIE;449;76;49.854797;1.48691463898;85
GUIRY-EN-VEXIN;200;33.0;14.1;21.0;21.9;88;12;24200;68;ILE-DE-FRANCE;411;95;49.1158466771;1.85568912619;85
VISERNY;200;32.2;12.4;16.5;20.8;90;10;23600;64;BOURGOGNE;427;21;47.5627164354;4.28367240429;85
IGON;900;33.6;16.4;19.5;21.7;80;20;22700;62;AQUITAINE;429;64;43.153240594;-0.232545768454;85
SAINT-EMILION;2000;33.7;14.6;16.7;22.3;85;15;25700;52;AQUITAINE;448;33;44.8999911844;-0.169955105989;85
BEGROLLES-EN-MAUGES;1800;32.4;13.9;17.6;20.1;82;18;23300;65;PAYS DE LA LOIRE;434;49;47.133273239;-0.931697835787;85
MERCENAC;400;33.5;16.5;18.6;20.9;84;16;22100;65;MIDI-PYRENEES;438;09;43.0533409773;1.06840881939;85
ALLEYRAS;200;32.9;16.1;16.8;23.4;79;21;24100;67;AUVERGNE;407;43;44.9071449693;3.68020035357;85
COUSSAY-LES-BOIS;900;34.9;12.6;15.4;20.5;80;20;24300;50;POITOU-CHARENTES;422;86;46.8131222702;0.725467078625;85
ESSERTENNE-ET-CECEY;400;33.7;13.0;17.4;21.9;90;10;24700;57;FRANCHE-COMTE;412;70;47.4004565715;5.46661383685;85
SAINTINES;900;33.7;12.8;21.0;21.3;77;23;25700;54;PICARDIE;438;60;49.3020445014;2.76780194989;85
HOUVILLE-EN-VEXIN;200;32.7;12.6;18.3;24.5;82;18;22700;64;HAUTE-NORMANDIE;434;27;49.2999641721;1.35759066784;85
SAINT-SATURNIN-DU-BOIS;900;34.1;16.0;17.1;22.5;83;17;25300;51;POITOU-CHARENTES;446;17;46.1401428747;-0.665133364912;85
SAINT-MAIXENT-SUR-VIE;900;33.7;16.8;19.6;23.5;82;18;25800;58;PAYS DE LA LOIRE;401;85;46.7329496925;-1.82595152879;85
TAPONAS;900;32.1;13.9;17.1;23.3;79;21;23600;65;RHONE-ALPES;426;69;46.1258360429;4.76268144564;85
BEBING;200;33.9;16.5;18.2;23.7;73;27;25400;57;LORRAINE;435;57;48.7214398635;6.99109821572;85
LUMEAU;200;34.5;15.4;17.5;22.2;88;12;23300;58;CENTRE;416;28;48.106757981;1.7776103465;85
SAINT-AMAND-DE-COLY;400;32.2;14.6;15.2;20.3;86;14;25500;58;AQUITAINE;425;24;45.0521923341;1.24653200545;85
CUCURON;1800;34.9;15.9;17.4;23.7;78;22;24800;61;PROVENCE-ALPES-COTE D'AZUR;393;84;43.778224355;5.44361580359;85
LES AIX-D'ANGILLON;1900;31.3;12.2;15.5;24.2;85;15;25300;65;CENTRE;411;18;47.192968882;2.56146410193;85
SAINT-GERMAIN-SUR-AY;900;33.4;13.9;20.5;21.5;83;17;24400;58;BASSE-NORMANDIE;418;50;49.2376498334;-1.60885612868;85
ARLANC;1900;33.2;17.4;21.3;20.2;87;13;23900;60;AUVERGNE;414;63;45.4207986655;3.72311154214;85
CHAILLE-LES-MARAIS;1900;33.6;16.0;16.4;20.1;80;20;23500;61;PAYS DE LA LOIRE;411;85;46.3853555319;-1.01044079362;85
RIVIERES;1800;34.5;14.1;18.2;22.6;83;17;20100;67;POITOU-CHARENTES;433;16;45.7608747272;0.359373568678;85
OZOUER-LE-VOULGIS;1800;32.3;13.8;21.9;24.4;87;13;25100;61;ILE-DE-FRANCE;445;77;48.6647166241;2.77681122892;85
BRIENNE;400;30.8;13.4;15.1;20.1;85;15;25300;68;BOURGOGNE;426;71;46.5560939784;5.02368261906;85
VAUVILLE;200;30.9;13.6;15.1;21.7;84;16;25400;67;BASSE-NORMANDIE;419;14;49.308998288;0.05853051607;85
STILL;1700;33.1;16.1;21.7;20.7;83;17;25000;58;ALSACE;420;67;48.5666223105;7.36640588547;85
SAINTE-JAMME-SUR-SARTHE;2100;33.8;12.7;21.7;24.4;81;19;24900;53;PAYS DE LA LOIRE;433;72;48.138410724;0.158484582373;85
PARNAC;400;32.0;12.3;15.5;24.3;84;16;24600;64;MIDI-PYRENEES;409;46;44.4811948006;1.31867316292;85
MARIGNY;2100;34.4;14.3;18.5;24.8;85;15;25500;53;BASSE-NORMANDIE;414;50;49.1042100375;-1.2522099973;85
SAINT-LEONARD;1800;33.8;14.7;19.1;20.2;82;18;24600;55;HAUTE-NORMANDIE;416;76;49.7321818322;0.341907614977;85
COTIGNAC;2100;33.0;14.2;20.0;21.4;77;23;25600;57;PROVENCE-ALPES-COTE D'AZUR;442;83;43.5233757149;6.14490029042;85
POURSIUGUES-BOUCOUE;200;31.5;17.0;18.7;20.9;78;22;25600;68;AQUITAINE;410;64;43.5541576599;-0.378415416336;85
CHOUDAY;200;34.3;12.6;16.7;23.7;74;26;25900;55;CENTRE;445;36;46.9211133197;2.05340256706;85
LONGVILLIERS;200;33.8;13.0;16.4;20.2;83;17;22100;69;NORD-PAS-DE-CALAIS;427;62;50.5350281811;1.74349784296;85
CHERANCE;200;34.7;16.9;21.5;23.3;76;24;21500;66;PAYS DE LA LOIRE;443;53;47.8007098465;-0.926581399952;85
LONGEPIERRE;200;34.4;14.5;16.1;21.6;78;22;24900;66;BOURGOGNE;386;71;46.9339285323;5.20327520847;85
SAINT-GREGOIRE;400;34.0;17.0;19.0;24.3;85;15;21800;64;MIDI-PYRENEES;433;81;43.9551674192;2.26106441809;85
CONFLANS-SUR-LOING;400;30.5;12.3;16.3;24.4;88;12;25800;65;CENTRE;430;45;47.9459451483;2.77660641899;85
COMBERJON;200;32.2;15.1;15.1;22.8;84;16;24900;61;FRANCHE-COMTE;429;70;47.6446228268;6.20332293485;85
SAMOIS-SUR-SEINE;2100;31.9;15.2;16.4;20.3;81;19;24300;63;ILE-DE-FRANCE;424;77;48.4550515717;2.75291155262;85
SAINT-DIDIER-DE-LA-TOUR;1800;33.7;17.9;15.6;21.5;86;14;23000;63;RHONE-ALPES;412;38;45.5479526483;5.48734196729;85
COUILLY-PONT-AUX-DAMES;2100;31.9;16.9;21.2;20.9;74;26;25800;65;ILE-DE-FRANCE;427;77;48.8816698375;2.86534000286;85
SAINT-LAURENT-DE-COGNAC;900;34.9;16.1;20.6;21.0;86;14;24700;67;POITOU-CHARENTES;377;16;45.6950500912;-0.394353792222;85
LE GUA;2100;31.5;16.6;20.4;23.4;89;11;25900;60;POITOU-CHARENTES;429;17;45.7264855028;-0.965197924835;85
PRADONS;400;34.8;16.7;19.3;22.4;78;22;25200;66;RHONE-ALPES;379;07;44.473019743;4.37584445661;85
HOMMERT;400;29.7;14.2;17.4;23.4;88;12;25700;65;LORRAINE;443;57;48.6771461904;7.17716114263;85
GUMERY;200;33.7;13.4;21.8;23.3;89;11;25200;65;CHAMPAGNE-ARDENNE;389;10;48.4396051909;3.42197876151;85
CHARME;400;32.4;15.4;17.4;22.0;75;25;25700;61;POITOU-CHARENTES;426;16;45.9500924838;0.120032287303;85
SAINT-VIANCE;1700;31.4;14.7;18.3;22.0;84;16;25400;63;LIMOUSIN;449;19;45.2102922064;1.46418044061;85
BERZE-LE-CHATEL;100;32.1;12.5;19.9;21.8;86;14;24600;61;BOURGOGNE;427;71;46.3957782254;4.68241463331;85
AISSEY;200;34.8;16.0;18.3;22.2;78;22;24000;64;FRANCHE-COMTE;390;25;47.2699271702;6.32693976026;85
LABROYE;200;31.4;13.1;16.9;20.5;87;13;25800;61;NORD-PAS-DE-CALAIS;437;62;50.2935984532;1.98515419117;85
EMALLEVILLE;500;33.0;15.4;15.9;20.3;88;12;24300;59;HAUTE-NORMANDIE;443;27;49.1016649726;1.1570133623;85
PAZY;300;30.6;17.5;21.8;20.9;81;19;25800;62;BOURGOGNE;419;58;47.2261642942;3.63097657563;85
FOLLES;500;34.0;16.1;17.4;24.0;85;15;23800;68;LIMOUSIN;393;87;46.1248930681;1.45625971523;85
CHONVILLE-MALAUMONT;200;30.8;17.2;20.1;21.8;87;13;25600;65;LORRAINE;441;55;48.7606282553;5.49015408334;85
CORNILLON-SUR-L'OULE;100;34.2;12.5;18.7;22.8;84;16;23700;56;RHONE-ALPES;428;26;44.4553268167;5.36026006175;85
LAMOTHE-FENELON;300;34.8;15.6;21.0;20.9;80;20;21100;68;MIDI-PYRENEES;415;46;44.827504864;1.42494397821;85
SAINT-JULIEN-LABROUSSE;300;33.1;12.9;19.9;24.7;82;18;23600;62;RHONE-ALPES;428;07;44.9079658376;4.51640015413;85
ERCHIN;800;34.9;12.5;17.4;23.0;76;24;24100;57;NORD-PAS-DE-CALAIS;431;59;50.3168262116;3.17348026694;85
CUGAND;3200;33.1;17.7;15.1;23.7;89;11;25900;52;PAYS DE LA LOIRE;431;85;47.0602388146;-1.25289811103;85
CERNY;3200;34.6;13.8;21.2;20.6;80;20;25000;56;ILE-DE-FRANCE;403;91;48.4859798517;2.31068283872;85
CONS-SAINTE-COLOMBE;300;33.8;14.9;21.9;20.6;80;20;21300;66;RHONE-ALPES;436;74;45.7429748501;6.33185588617;85
BARJAC;1500;33.3;15.3;18.2;23.8;80;20;24200;65;LANGUEDOC-ROUSSILLON;405;30;44.3122415211;4.34841481782;85
SALLES;300;34.7;16.6;21.8;21.4;89;11;23000;57;POITOU-CHARENTES;429;79;46.3878556621;-0.0976374643512;85
ARTZENHEIM;800;33.3;13.8;21.4;21.1;85;15;25300;67;ALSACE;387;68;48.1150139228;7.54242627283;85
LE MOULINET-SUR-SOLIN;100;32.1;17.8;16.5;23.3;82;18;23000;65;CENTRE;429;45;47.817291457;2.61111743107;85
WATTIGNIES-LA-VICTOIRE;300;31.9;14.8;19.5;23.4;84;16;24700;62;NORD-PAS-DE-CALAIS;421;59;50.2003544445;4.00235676778;85
CABRIERES-D'AIGUES;800;33.8;14.6;15.0;23.8;89;11;22100;65;PROVENCE-ALPES-COTE D'AZUR;441;84;43.7913015359;5.49177311487;85
LES HOUCHES;3100;34.9;13.1;19.1;20.1;72;28;24200;58;RHONE-ALPES;419;74;45.8968732063;6.8000932715;85
VOULAINES-LES-TEMPLIERS;300;33.5;16.1;18.5;23.1;74;26;25100;61;BOURGOGNE;426;21;47.8306417712;4.77656655885;85
BOISSY-LE-CHATEL;3100;32.0;15.8;16.8;21.6;83;17;22800;67;ILE-DE-FRANCE;422;77;48.8253832401;3.13705190167;85
BAUDUEN;300;32.0;15.6;19.8;24.4;78;22;25800;62;PROVENCE-ALPES-COTE D'AZUR;436;83;43.7157423488;6.20204455595;85
SAINT-LAURENT-DE-LEVEZOU;200;33.5;12.6;21.7;21.3;89;11;22700;68;MIDI-PYRENEES;417;12;44.2089764028;2.93837029184;85
HERBEVILLE;300;29.8;12.0;16.7;25.0;83;17;25900;65;ILE-DE-FRANCE;430;78;48.9026044293;1.89020414118;85
BAY;100;32.4;12.3;17.1;22.8;74;26;25100;66;FRANCHE-COMTE;439;70;47.2949169837;5.71604636677;85
VILLERS-SEMEUSE;3300;34.0;15.0;18.6;21.2;86;14;21700;69;CHAMPAGNE-ARDENNE;415;08;49.7411448562;4.7510548564;85
SORCY-SAINT-MARTIN;1000;31.2;15.5;21.5;23.7;89;11;25200;62;LORRAINE;419;55;48.719302425;5.6607909695;85
JULVECOURT;100;34.4;16.5;20.8;22.7;84;16;20700;69;LORRAINE;431;55;49.0596334338;5.19038629276;85
LE MESNIL-ROUXELIN;500;34.3;14.7;20.9;21.0;76;24;22500;68;BASSE-NORMANDIE;414;50;49.1423322166;-1.07833436341;85
ISSAMOULENC;100;34.7;13.9;21.2;22.9;76;24;25600;69;RHONE-ALPES;388;07;44.7883137241;4.45570599159;85
BILLY-SUR-OURCQ;200;34.9;12.3;18.0;21.3;73;27;25900;57;PICARDIE;408;02;49.2215032882;3.29903267663;85
LA LOUPE;3500;32.4;17.0;15.2;24.4;85;15;23200;66;CENTRE;437;28;48.473175806;1.02235330632;85
GALLARDON;3500;32.9;14.7;19.7;22.5;88;12;24600;59;CENTRE;417;28;48.5338026197;1.68926878076;85
SAINT-VINCENT-DE-CONNEZAC;500;34.7;13.7;17.9;24.5;86;14;25700;58;AQUITAINE;392;24;45.1654628762;0.392273102143;85
ILHAT;100;30.5;13.6;17.5;22.6;82;18;26000;69;MIDI-PYRENEES;442;09;42.9512575133;1.7851302515;85
LE PLESSIER-SUR-SAINT-JUST;500;32.7;17.1;21.5;24.3;87;13;24700;58;PICARDIE;444;60;49.5081515622;2.4596143307;85
SAINT-AUBIN-LA-PLAINE;500;34.3;16.8;19.1;20.7;86;14;25200;51;PAYS DE LA LOIRE;430;85;46.5040293195;-1.06506577005;85
SAINT-OUEN;3500;34.1;16.8;20.0;23.5;85;15;20900;69;CENTRE;417;41;47.8279128555;1.07133932119;85
BRANSAT;500;32.7;15.5;18.5;23.0;81;19;25000;59;AUVERGNE;446;03;46.3291248847;3.21707091921;85
SUZETTE;100;32.5;17.0;17.1;21.6;84;16;24800;59;PROVENCE-ALPES-COTE D'AZUR;442;84;44.1717196495;5.06194089513;85
SAINT-PIERRE-DE-COLE;500;34.2;15.9;18.4;24.5;84;16;23100;69;AQUITAINE;400;24;45.3807175566;0.807692228631;85
NEVY-SUR-SEILLE;200;34.4;15.2;18.4;23.1;80;20;20900;67;FRANCHE-COMTE;424;39;46.7343478982;5.64536782346;85
ROCHETAILLEE-SUR-SAONE;1500;32.5;12.6;19.8;20.2;85;15;25900;57;RHONE-ALPES;416;69;45.8431049292;4.83850182261;85
SEGALAS;100;33.6;15.9;18.4;22.4;73;27;25500;64;MIDI-PYRENEES;406;65;43.4098505398;0.130234005775;85
POEY-DE-LESCAR;1500;32.2;12.9;18.7;24.3;78;22;23200;68;AQUITAINE;433;64;43.3557464475;-0.457046076502;85
JOUCAS;300;32.4;12.1;21.8;20.4;89;11;24900;58;PROVENCE-ALPES-COTE D'AZUR;446;84;43.9263664747;5.25260939996;85
ALTENHEIM;200;31.8;15.4;19.2;23.2;89;11;25700;66;ALSACE;405;67;48.7200663423;7.46240989793;85
PARENTY;500;33.0;13.8;19.4;23.4;83;17;23800;66;NORD-PAS-DE-CALAIS;410;62;50.5942219579;1.80057178458;85
ESPES-UNDUREIN;500;33.9;17.6;22.0;21.8;89;11;24500;66;AQUITAINE;397;64;43.2745536511;-0.89014755808;85
SAINT-QUENTIN-EN-MAUGES;1000;32.6;16.5;21.6;21.0;77;23;24300;67;PAYS DE LA LOIRE;413;49;47.2888472215;-0.898885980127;85
PUISEAUX;3300;31.9;14.5;20.2;23.3;73;27;24800;67;CENTRE;423;45;48.2093647379;2.4665704993;85
SAINT-MARTIN-DU-BOIS;800;35.0;17.2;17.2;23.0;77;23;25400;66;AQUITAINE;379;33;45.0202297197;-0.259099339397;85
BEMECOURT;500;33.1;16.8;15.9;23.9;89;11;22600;69;HAUTE-NORMANDIE;442;27;48.8432221726;0.848460496719;85
ANSAUVILLE;100;34.4;13.4;21.7;20.9;87;13;21000;67;LORRAINE;436;54;48.8123329537;5.82286125547;85
CUMIERES;800;29.9;16.8;21.1;20.3;85;15;25700;67;CHAMPAGNE-ARDENNE;423;51;49.0721627289;3.91948376313;85
SAINT-DIZIER-LES-DOMAINES;200;34.2;15.6;20.0;23.0;78;22;23900;60;LIMOUSIN;410;23;46.3228482905;2.04735395376;85
VERCHIN;200;32.3;12.9;21.2;20.2;85;15;23800;69;NORD-PAS-DE-CALAIS;433;62;50.493379155;2.17923063627;85
CLOYES-SUR-LE-LOIR;2700;31.0;16.4;20.0;20.4;86;14;25400;61;CENTRE;432;28;47.9934559542;1.22150535909;85
CRIEL-SUR-MER;2700;32.4;16.6;17.4;23.5;82;18;23900;60;HAUTE-NORMANDIE;443;76;50.0191932623;1.32368263071;85
TALLENDE;1600;34.0;12.9;17.1;22.7;78;22;22800;61;AUVERGNE;427;63;45.661669969;3.13374681277;85
GRISELLES;800;30.8;14.6;18.9;24.5;88;12;25600;64;CENTRE;433;45;48.0735835169;2.83901936313;85
ESQUERDES;1600;35.0;15.7;19.0;20.2;78;22;23900;69;NORD-PAS-DE-CALAIS;389;62;50.7009057679;2.17889940044;85
VEZINS;1600;35.0;15.0;15.1;20.1;82;18;22500;64;PAYS DE LA LOIRE;407;49;47.1152806742;-0.721207267194;85
THENNELIERES;300;33.3;15.0;16.1;21.8;88;12;25500;69;CHAMPAGNE-ARDENNE;389;10;48.2893448693;4.18526592573;85
LE TECH;100;34.9;14.1;19.7;23.8;81;19;25700;51;LANGUEDOC-ROUSSILLON;407;66;42.4414680314;2.51364104722;85
GESNES-LE-GANDELIN;1000;32.5;14.0;21.3;21.6;81;19;23900;65;PAYS DE LA LOIRE;416;72;48.3576711707;0.0296457032236;85
CARQUEBUT;300;33.1;14.2;15.6;20.2;78;22;24600;61;BASSE-NORMANDIE;435;50;49.3744415862;-1.32327946627;85
QUINTILLAN;100;33.7;17.0;20.6;24.1;85;15;25100;54;LANGUEDOC-ROUSSILLON;433;11;42.9592603481;2.70315796115;85
SAINT-MARCEL-CAMPES;300;32.9;13.5;16.0;20.9;87;13;23200;69;MIDI-PYRENEES;435;81;44.083875553;2.00175106626;85
PROUVAIS;400;32.7;13.6;17.7;24.2;71;29;25400;65;PICARDIE;437;02;49.4760906978;3.97215349857;85
CAMBLANES-ET-MEYNAC;2600;34.1;17.9;18.0;20.4;75;25;25200;62;AQUITAINE;403;33;44.7664526073;-0.475866480687;85
BOSC-GUERARD-SAINT-ADRIEN;800;34.2;13.2;20.7;23.0;78;22;24600;55;HAUTE-NORMANDIE;426;76;49.5411821523;1.12523035635;85
CAVILLON;100;34.5;12.7;17.4;22.2;90;10;22300;59;PICARDIE;421;80;49.9182245477;2.07548412693;85
SAINT-VENERAND;100;30.4;17.3;17.1;24.0;84;16;25100;68;AUVERGNE;438;43;44.8753908292;3.67498479809;85
FREMONVILLE;200;33.3;12.1;20.9;24.6;86;14;22800;65;LORRAINE;447;54;48.6052485765;6.90329247833;85
NEUFCHEF;2500;34.1;14.4;18.6;20.0;90;10;21200;66;LORRAINE;430;57;49.317754273;6.01399448465;85
LAREE;200;33.4;14.9;22.0;23.4;71;29;25200;62;MIDI-PYRENEES;432;32;43.9065293068;-0.0565335680322;85
SAVOLLES;200;34.6;15.8;16.7;21.4;90;10;23000;66;BOURGOGNE;397;21;47.3778180325;5.27546231852;85
ETIVAL-CLAIREFONTAINE;2500;31.8;12.2;17.3;23.0;78;22;24800;65;LORRAINE;436;88;48.3643386923;6.84394360336;85
SAINT-GELAIS;1700;32.6;13.1;18.0;24.4;77;23;24800;63;POITOU-CHARENTES;435;79;46.3783464917;-0.388823361913;85
IVERGNY;300;33.7;14.5;16.3;24.4;71;29;25700;58;NORD-PAS-DE-CALAIS;430;62;50.2380889989;2.38095249535;85
CHATEL-MONTAGNE;400;35.0;16.1;18.5;24.4;88;12;23500;67;AUVERGNE;391;03;46.1000720289;3.71657168388;85
SAINT-ANTONIN-DE-LACALM;300;31.6;14.8;21.7;23.8;80;20;25500;63;MIDI-PYRENEES;410;81;43.7817652694;2.29527252552;85
SAINT-PIERRE-DE-BOEUF;1600;34.5;12.4;19.5;22.8;85;15;22000;62;RHONE-ALPES;432;42;45.3766717807;4.74426644516;85
LAUZERTE;1500;34.7;13.7;16.6;21.2;80;20;24200;59;MIDI-PYRENEES;406;82;44.2642995725;1.12713270139;85
FONTENILLE;300;32.4;16.9;17.6;20.1;86;14;22900;68;POITOU-CHARENTES;425;16;45.9129011037;0.174854978046;85
SOUEL;200;34.0;12.7;17.8;24.7;83;17;22900;59;MIDI-PYRENEES;437;81;44.0347194017;1.96267269811;85
FARBUS;500;34.9;12.3;15.2;20.6;72;28;22800;63;NORD-PAS-DE-CALAIS;416;62;50.3602196651;2.82681103336;85
MAIGNE;300;34.6;13.6;17.1;23.1;90;10;23600;55;PAYS DE LA LOIRE;440;72;47.9388716442;-0.0547288929729;85
SAINT-PARRES-AUX-TERTRES;2900;31.2;17.3;18.3;23.7;79;21;24600;65;CHAMPAGNE-ARDENNE;432;10;48.2913084954;4.13302448391;85
QUEZAC;300;34.8;17.4;18.7;20.9;78;22;25600;51;AUVERGNE;442;15;44.7584182677;2.18352283274;85
BOEGE;1600;33.4;18.0;18.1;21.6;80;20;24700;58;RHONE-ALPES;431;74;46.2188768633;6.38530552261;85
NANTHEUIL;1000;34.0;16.9;21.9;24.7;72;28;25500;59;AQUITAINE;442;24;45.4263272071;0.956262787704;85
MARCILLE-RAOUL;800;33.4;16.5;16.8;24.7;72;28;25600;61;BRETAGNE;444;35;48.3743980511;-1.6139420088;85
VILLE-SAVOYE;100;34.0;17.0;20.6;20.2;76;24;23400;64;PICARDIE;410;02;49.2929807511;3.63762361829;85
GRIGNAN;1600;33.2;17.5;16.8;20.7;89;11;23700;60;RHONE-ALPES;440;26;44.4369175751;4.90180143483;85
BRIGNOGAN-PLAGE;800;32.9;16.6;15.3;22.9;84;16;22300;69;BRETAGNE;441;29;48.6673259175;-4.33395670694;85
LA BOISSE;2900;31.9;17.1;20.8;24.3;77;23;25100;64;RHONE-ALPES;444;01;45.8446213549;5.02783224111;85
PARISOT;800;34.1;15.0;21.4;22.5;81;19;25700;53;MIDI-PYRENEES;415;81;43.8046304256;1.83642655485;85
BOURG-CHARENTE;800;35.0;14.3;21.5;21.8;84;16;21600;62;POITOU-CHARENTES;418;16;45.6659937822;-0.222233070692;85
FREDERIC-FONTAINE;300;34.5;15.2;16.7;24.8;81;19;21400;68;FRANCHE-COMTE;443;70;47.6511337429;6.63272946066;85
POINSENOT;100;32.4;13.0;19.3;23.5;89;11;24300;61;CHAMPAGNE-ARDENNE;432;52;47.7161433717;5.00835250709;85
SAINT-SAVIN;2800;33.5;12.4;17.8;22.5;87;13;25000;61;AQUITAINE;397;33;45.1636697331;-0.441034693146;85
BAUDREMONT;100;32.6;16.3;19.7;22.7;80;20;24300;62;LORRAINE;439;55;48.8371703603;5.39335538286;85
MOBECQ;200;34.3;13.7;16.9;21.2;89;11;21100;69;BASSE-NORMANDIE;415;50;49.2696171767;-1.52073497658;85
LETANNE;100;31.0;15.8;18.0;20.2;84;16;26000;66;CHAMPAGNE-ARDENNE;415;08;49.5441296129;5.08001114382;85
LA CHENALOTTE;400;33.7;14.1;21.0;24.5;76;24;22800;63;FRANCHE-COMTE;422;25;47.1081527318;6.68735425042;85
AUBETERRE;200;34.8;14.1;18.6;23.1;84;16;24800;53;CHAMPAGNE-ARDENNE;410;10;48.4223977311;4.10677615502;85
GUZARGUES;400;31.9;16.2;16.4;24.6;82;18;24000;65;LANGUEDOC-ROUSSILLON;438;34;43.7292469184;3.9239639392;85
BRUYS;0;32.1;17.6;17.3;21.3;87;13;23800;64;PICARDIE;424;02;49.2621681637;3.56863439754;85
SAINTE-LEOCADIE;100;34.7;13.5;16.3;23.6;77;23;24400;55;LANGUEDOC-ROUSSILLON;417;66;42.434356099;2.00830705641;85
CAUBOUS;0;32.5;12.3;17.5;23.6;79;21;25900;61;MIDI-PYRENEES;408;31;42.8472592399;0.521910394334;85
ROCHE-CHARLES-LA-MAYRAND;0;32.3;13.9;17.2;24.3;85;15;23400;67;AUVERGNE;431;63;45.447450625;3.02047016292;85
POILLY-SUR-THOLON;700;34.9;12.3;20.1;20.2;83;17;24000;53;BOURGOGNE;439;89;47.8494315541;3.39947947458;85
LA FERTE-LOUPIERE;600;34.9;13.7;20.5;21.6;76;24;24800;53;BOURGOGNE;437;89;47.8869741845;3.23991180374;85
LE RAINCY;13800;33.6;14.0;16.3;23.5;83;17;20300;66;ILE-DE-FRANCE;446;93;48.8967447585;2.51973664021;85
LONS-LE-SAUNIER;17900;33.3;15.0;16.8;24.3;88;12;20400;64;FRANCHE-COMTE;447;39;46.6744796278;5.55733212947;85
CHAMARET;600;31.5;13.8;18.0;24.6;77;23;25900;63;RHONE-ALPES;435;26;44.3946636765;4.87604393903;85
MITRY-MORY;18500;33.2;16.4;20.2;23.1;82;18;24600;62;ILE-DE-FRANCE;397;77;48.9779450158;2.61244465751;85
BERVILLE-SUR-MER;600;33.9;12.5;20.9;22.0;74;26;23500;63;HAUTE-NORMANDIE;427;27;49.4308635089;0.357667188037;85
REGNEVILLE-SUR-MEUSE;0;32.1;16.9;17.0;20.9;76;24;24100;66;LORRAINE;441;55;49.2519964472;5.31620365223;85
COULOMBS-EN-VALOIS;600;33.6;16.0;18.4;20.6;82;18;25000;61;ILE-DE-FRANCE;406;77;49.0777461945;3.12814777064;85
GLOS-LA-FERRIERE;600;34.7;17.5;18.7;21.3;79;21;23000;57;BASSE-NORMANDIE;447;61;48.8484777896;0.595910350345;85
LA VILLE-AUX-BOIS-LES-PONTAVERT;100;34.8;12.2;16.4;23.0;84;16;24800;51;PICARDIE;436;02;49.4265972983;3.85108262844;85
SOUGY-SUR-LOIRE;600;33.4;16.3;20.3;20.6;81;19;24500;67;BOURGOGNE;404;58;46.8604832973;3.40636403321;85
MOISSAC;12200;33.1;13.1;22.0;21.4;76;24;23800;69;MIDI-PYRENEES;403;82;44.1262518079;1.09834758014;85
MARDOR;100;29.9;17.0;20.4;24.5;87;13;25500;65;CHAMPAGNE-ARDENNE;420;52;47.8839324283;5.20979926063;85
STAZZONA;0;33.6;17.5;20.0;23.7;74;26;22900;69;CORSE;421;2B;42.379383324;9.37520653497;85
LE SAUZE-DU-LAC;100;34.8;16.6;21.6;22.2;78;22;25400;49;PROVENCE-ALPES-COTE D'AZUR;445;05;44.485574244;6.32317639258;85
CHATELUS-MALVALEIX;600;34.7;16.4;18.9;21.8;86;14;23400;63;LIMOUSIN;402;23;46.2969350634;2.03300541639;85
MESNIL-SAINT-NICAISE;600;33.2;16.9;18.6;22.9;78;22;25000;57;PICARDIE;433;80;49.7784450103;2.91323187372;85
LOGNES;14800;34.9;13.4;17.5;24.2;89;11;23500;49;ILE-DE-FRANCE;445;77;48.8332806021;2.63346363172;85
CAMOU-CIHIGUE;100;33.4;12.3;19.1;22.6;79;21;24300;60;AQUITAINE;434;64;43.1187601878;-0.921772960752;85
NERVILLE-LA-FORET;700;33.6;15.6;15.5;20.2;87;13;23200;66;ILE-DE-FRANCE;410;95;49.0903513665;2.27625010335;85
FREYCENET-LA-TOUR;100;33.8;15.4;21.5;21.3;77;23;25900;55;AUVERGNE;420;43;44.9354123707;4.07021557989;85
ESTABLET;0;32.9;14.6;15.3;24.4;72;28;25700;65;RHONE-ALPES;415;26;44.5021554085;5.4402415482;85
CATHERVIELLE;0;34.8;17.7;16.4;24.9;89;11;25900;57;MIDI-PYRENEES;398;31;42.8234692001;0.507545845496;85
LIMAY;16200;35.0;17.8;17.4;20.7;83;17;22900;68;ILE-DE-FRANCE;384;78;48.9946438183;1.7398704848;85
MONTIGNY-LE-BRETONNEUX;33700;33.6;13.9;19.9;20.5;67;33;22500;64;ILE-DE-FRANCE;429;78;48.779658781;2.02952194549;85
VOLMERANGE-LES-BOULAY;600;33.4;13.9;21.6;23.5;75;25;23200;65;LORRAINE;439;57;49.1701692039;6.44955385962;85
CARBINI;100;32.8;14.0;21.7;21.1;88;12;22200;69;CORSE;437;2A;41.6757000728;9.16018139778;85
COLOMIERS;34300;30.6;15.0;15.3;23.0;69;31;25100;64;MIDI-PYRENEES;420;31;43.611551508;1.32700218407;85
MAILLY-MAILLET;600;34.8;12.5;17.0;21.6;79;21;24300;63;PICARDIE;394;80;50.080228584;2.59367423129;85
MIRAVAL-CABARDES;0;35.0;12.8;20.2;24.5;78;22;21300;63;LANGUEDOC-ROUSSILLON;423;11;43.3813815441;2.34060793315;85
VOUHE;600;30.4;13.8;18.8;20.6;88;12;26000;66;POITOU-CHARENTES;443;17;46.1518956728;-0.797123329244;85
MAUREPAS;18800;34.4;12.7;16.5;20.6;83;17;24000;68;ILE-DE-FRANCE;374;78;48.7698393561;1.92404037065;85
CHASNAIS;600;34.4;16.6;18.5;20.5;73;27;25600;65;PAYS DE LA LOIRE;395;85;46.4459908481;-1.2385924923;85
RANCONNIERES;100;33.9;17.7;17.7;23.0;85;15;21700;65;CHAMPAGNE-ARDENNE;434;52;47.9411957897;5.55892920828;85
DANGOLSHEIM;600;33.5;13.9;19.2;24.1;75;25;23500;69;ALSACE;424;67;48.5647236628;7.45735566784;85
LA MADELEINE-VILLEFROUIN;0;30.5;18.0;20.8;22.1;82;18;25400;69;CENTRE;418;41;47.7776509493;1.38986777758;85
ARGOUGES;600;31.3;12.0;16.3;22.8;77;23;24700;69;BASSE-NORMANDIE;435;50;48.4916284059;-1.37949697287;85
DAHLENHEIM;700;33.7;12.9;18.7;22.2;81;19;24000;64;ALSACE;405;67;48.5882941085;7.51624848746;85
THEZAC;300;34.6;15.3;20.4;24.7;83;17;21200;57;POITOU-CHARENTES;449;17;45.6764768852;-0.789153508281;84
VIVILLE;100;33.8;16.8;20.0;20.7;81;19;20600;62;POITOU-CHARENTES;441;16;45.5253882542;-0.123672658113;84
ROINVILLE;300;33.5;17.9;16.1;23.1;80;20;20700;63;CENTRE;445;28;48.4427044137;1.7567393005;84
DAMPRICHARD;1800;32.6;14.0;19.3;21.6;80;20;23700;65;FRANCHE-COMTE;398;25;47.2378466799;6.8737017298;84
TOURNON-SAINT-PIERRE;500;33.1;12.6;18.1;23.4;87;13;21000;68;CENTRE;418;37;46.7610344605;0.946565591011;84
ALLOUVILLE-BELLEFOSSE;1200;32.3;17.0;15.9;23.5;82;18;22000;66;HAUTE-NORMANDIE;416;76;49.5946409573;0.665436022637;84
ANGLADE;900;31.3;17.0;17.4;22.3;71;29;24900;68;AQUITAINE;419;33;45.2115004641;-0.638219671471;84
CHAMPS-SUR-YONNE;1600;32.2;12.2;17.1;23.7;90;10;22600;62;BOURGOGNE;421;89;47.7506618668;3.60173279363;84
SEIGNOSSE;3300;31.5;15.1;16.4;24.6;81;19;24900;59;AQUITAINE;442;40;43.7021964029;-1.3970873051;84
CHANNAY;100;32.4;16.1;15.4;21.5;80;20;24600;57;BOURGOGNE;413;21;47.8910741862;4.31948318267;84
PAZIOLS;500;34.8;12.2;19.3;21.6;82;18;19400;69;LANGUEDOC-ROUSSILLON;443;11;42.8544727746;2.7156141334;84
TACHOIRES;100;31.6;17.0;21.0;23.4;90;10;23500;66;MIDI-PYRENEES;444;32;43.4721937352;0.660115776589;84
BELLOY;100;30.9;15.6;18.4;23.8;88;12;24300;65;PICARDIE;427;60;49.5352929666;2.65285100616;84
LANCON;0;33.0;14.8;15.3;23.4;74;26;25400;56;CHAMPAGNE-ARDENNE;421;08;49.2748052641;4.88800053643;84
LOUTZVILLER;200;31.7;16.0;15.4;23.3;88;12;25900;56;LORRAINE;414;57;49.144497827;7.38445498027;84
KERGLOFF;900;31.0;17.7;19.4;24.4;82;18;23100;69;BRETAGNE;430;29;48.2804454858;-3.64568859404;84
TOURNEDOS-SUR-SEINE;100;32.6;13.7;19.2;20.1;86;14;22800;64;HAUTE-NORMANDIE;414;27;49.2763036364;1.25674953028;84
SAZERET;200;31.8;14.3;16.4;22.3;83;17;23900;59;AUVERGNE;420;03;46.3468702581;2.96976112683;84
ASSE-LE-BOISNE;900;30.8;15.3;19.5;23.8;85;15;24300;61;PAYS DE LA LOIRE;447;72;48.3216528559;-0.00324343366865;84
TRANZAULT;300;31.2;13.3;17.3;23.3;76;24;24900;69;CENTRE;416;36;46.622046927;1.85411308963;84
SAINT-PAUL;300;33.8;16.5;16.8;21.5;82;18;24700;49;MIDI-PYRENEES;442;65;43.0860017819;0.510432995882;84
BRABANT-LE-ROI;200;33.6;14.0;15.3;20.7;86;14;21600;62;LORRAINE;439;55;48.8537761275;4.98106135604;84
NEUVILLE-SUR-AIN;1500;33.3;16.4;21.6;21.4;81;19;20700;68;RHONE-ALPES;415;01;46.0909654813;5.37349784691;84
SAINT-AMBREUIL;500;34.1;17.8;18.3;23.9;84;16;23100;63;BOURGOGNE;398;71;46.6810830382;4.81914623845;84
AUCUN;300;33.7;17.8;15.7;23.4;89;11;20000;65;MIDI-PYRENEES;420;65;42.9857652582;-0.201428304348;84
POISEUL;100;30.4;15.0;17.4;23.8;82;18;24200;68;CHAMPAGNE-ARDENNE;424;52;47.9229870743;5.49096839108;84
PRECY-SUR-OISE;3300;33.1;17.9;16.6;21.7;89;11;25800;53;PICARDIE;413;60;49.2033673942;2.36214384754;84
SAINT-COME-DU-MONT;500;34.8;13.7;19.7;21.2;75;25;22700;57;BASSE-NORMANDIE;423;50;49.3317896606;-1.26025005483;84
BRIOUDE;6700;33.0;15.1;17.1;23.3;86;14;25900;50;AUVERGNE;433;43;45.2964378846;3.38526303303;84
VIGNOUX-SUR-BARANGEON;2100;31.0;12.9;15.2;20.4;82;18;22800;69;CENTRE;436;18;47.2080522932;2.18031155899;84
REALVILLE;1800;34.9;17.9;18.1;24.9;82;18;24700;56;MIDI-PYRENEES;397;82;44.1281472573;1.48081390272;84
LUE;500;33.3;15.9;15.5;20.6;90;10;21700;61;AQUITAINE;433;40;44.2377202505;-0.9809457884;84
TINTENIAC;3300;31.1;13.6;21.5;22.7;73;27;25400;69;BRETAGNE;410;35;48.3231993668;-1.83043308458;84
DROUE;1100;33.4;17.0;18.8;21.5;80;20;24500;56;CENTRE;408;41;48.0341247129;1.06588244097;84
SAUVIGNY-LE-BEUREAL;100;32.4;14.8;20.4;24.5;74;26;25200;61;BOURGOGNE;449;89;47.4807022931;4.10703113936;84
DOMPREL;100;33.1;12.7;16.2;22.3;90;10;23800;65;FRANCHE-COMTE;394;25;47.1975252218;6.4793837741;84
COUTURES;500;32.1;15.8;15.7;22.3;87;13;25300;68;PAYS DE LA LOIRE;393;49;47.3723458994;-0.352088357358;84
ECALLES-ALIX;500;32.8;16.7;17.7;21.4;83;17;24500;53;HAUTE-NORMANDIE;436;76;49.6173418426;0.809761271567;84
MONNAI;200;34.2;13.5;18.9;22.7;78;22;25200;49;BASSE-NORMANDIE;431;61;48.8867920269;0.399908451205;84
GRAFFIGNY-CHEMIN;200;33.2;17.2;21.6;21.5;89;11;23500;58;CHAMPAGNE-ARDENNE;433;52;48.1692808867;5.64603738902;84
MAZINGHEM;400;34.3;15.0;17.2;23.5;77;23;26000;58;NORD-PAS-DE-CALAIS;394;62;50.6049243005;2.41314605386;84
DAGLAN;600;31.6;16.1;20.3;21.4;82;18;23800;63;AQUITAINE;415;24;44.7481705464;1.18720141568;84
AUSSONNE;6200;34.9;12.2;15.8;21.4;72;28;25300;67;MIDI-PYRENEES;374;31;43.6836034494;1.32887054853;84
CIRES-LES-MELLO;3500;30.1;18.0;16.8;22.3;81;19;24500;67;PICARDIE;430;60;49.262678531;2.33736387513;84
PEBRAC;100;34.3;16.4;16.9;23.5;78;22;24700;52;AUVERGNE;413;43;45.0291359693;3.52107311207;84
MONT-SAINT-REMY;100;32.8;13.0;16.4;22.7;74;26;24100;62;CHAMPAGNE-ARDENNE;428;08;49.3867440492;4.4768822942;84
COURSET;500;34.3;16.4;15.6;24.7;80;20;24900;48;NORD-PAS-DE-CALAIS;422;62;50.644204376;1.85186054058;84
REVILLE;1200;33.1;15.7;15.1;24.3;79;21;21600;62;BASSE-NORMANDIE;427;50;49.6261392194;-1.25142117163;84
LISON;500;30.2;15.8;15.6;24.4;82;18;24500;65;BASSE-NORMANDIE;420;14;49.2416115428;-1.05227521877;84
CUFFY;1100;33.8;17.5;17.0;23.8;81;19;24900;59;CENTRE;395;18;46.9693684862;3.03803252226;84
RIENCOURT-LES-CAGNICOURT;300;34.5;17.7;17.2;24.1;82;18;20900;62;NORD-PAS-DE-CALAIS;423;62;50.1942984379;2.96139723714;84
GIAT;900;33.8;13.6;17.5;20.5;85;15;20000;65;AUVERGNE;441;63;45.7993582147;2.47685317783;84
DECAZEVILLE;6100;33.7;17.1;18.4;23.8;76;24;25600;67;MIDI-PYRENEES;375;12;44.567273002;2.25243853064;84
PROMPSAT;400;31.6;17.2;16.7;22.4;73;27;23900;65;AUVERGNE;425;63;45.9450364846;3.07223860162;84
CORNUSSE;300;33.6;15.3;15.1;21.0;81;19;22600;57;CENTRE;441;18;46.9561295033;2.73264385975;84
RIMONS;200;30.9;16.3;16.4;20.7;74;26;25200;64;AQUITAINE;425;33;44.6744095264;0.0144612295759;84
SAINT-YRIEIX-LA-MONTAGNE;200;33.6;16.6;21.4;24.2;81;19;22400;59;LIMOUSIN;418;23;45.875697564;2.00324510072;84
MELLE;700;31.9;14.9;16.1;23.0;80;20;24300;60;BRETAGNE;427;35;48.4848259494;-1.19126091075;84
BEAUSSE;400;32.3;16.5;17.2;24.4;89;11;22000;69;PAYS DE LA LOIRE;434;49;47.3243023518;-0.936035810647;84
OLWISHEIM;500;34.8;12.1;15.7;21.3;85;15;19500;63;ALSACE;434;67;48.6977790108;7.67388730631;84
SALAVRE;300;32.0;12.8;17.3;24.2;80;20;23500;61;RHONE-ALPES;448;01;46.3635396668;5.34742387197;84
LAVAL-D'AURELLE;100;34.6;17.5;15.3;23.1;90;10;20700;68;RHONE-ALPES;403;07;44.5722739306;3.97264927735;84
SALLES-DE-VILLEFAGNAN;300;32.4;15.3;19.1;24.0;88;12;26000;50;POITOU-CHARENTES;419;16;45.9599094427;0.17124025939;84
SAUVAGNAS;500;30.0;16.7;17.9;21.3;77;23;25700;68;AQUITAINE;443;47;44.2464985095;0.749862858533;84
HOURC;100;34.3;17.5;20.5;21.0;87;13;22000;60;MIDI-PYRENEES;419;65;43.2501242697;0.17547709876;84
LES ROTOURS;100;34.7;16.9;19.2;22.7;86;14;18800;65;BASSE-NORMANDIE;436;61;48.7842951211;-0.263127598038;84
GENTILLY;17500;34.6;17.5;20.7;24.7;82;18;21400;58;ILE-DE-FRANCE;407;94;48.8132044389;2.34420659702;84
REHAINCOURT;300;34.4;17.5;21.6;24.9;77;23;20600;69;LORRAINE;442;88;48.3615254656;6.4703734495;84
BALAGUERES;200;33.6;13.8;18.6;21.3;83;17;23000;55;MIDI-PYRENEES;440;09;42.9673311242;1.0176138943;84
HOUTAUD;900;32.9;17.9;16.1;23.8;83;17;26000;57;FRANCHE-COMTE;395;25;46.9119596503;6.30024980473;84
ONZAIN;3400;30.7;15.0;18.1;21.2;88;12;22900;68;CENTRE;442;41;47.5123997667;1.16507315908;84
DIERRE;600;34.0;12.5;18.1;23.4;90;10;23000;67;CENTRE;399;37;47.3536037001;0.956010471155;84
QUILEN;100;34.9;14.8;15.9;23.2;90;10;25600;69;NORD-PAS-DE-CALAIS;361;62;50.5294762225;1.9336963946;84
MONS-EN-MONTOIS;500;31.6;14.0;16.0;20.7;78;22;25400;59;ILE-DE-FRANCE;439;77;48.4912312558;3.13957041829;84
SENAS;6400;33.6;15.0;19.7;23.8;74;26;22100;68;PROVENCE-ALPES-COTE D'AZUR;435;13;43.7446066018;5.08687884411;84
SAINT-URCIZE;500;34.1;17.4;16.8;20.2;82;18;25100;65;AUVERGNE;368;15;44.7054618442;2.97925067316;84
BERSON;1800;34.7;15.7;20.2;20.4;87;13;23700;52;AQUITAINE;420;33;45.1170453361;-0.574457509395;84
PLANQUERY;200;33.5;12.3;21.0;23.5;87;13;21600;68;BASSE-NORMANDIE;410;14;49.1624080403;-0.826461213535;84
MEREY-VIEILLEY;100;32.6;14.1;15.5;21.9;77;23;24900;58;FRANCHE-COMTE;415;25;47.3332322953;6.06387544689;84
MONTBOLO;200;33.2;17.5;18.9;22.9;89;11;21500;62;LANGUEDOC-ROUSSILLON;435;66;42.4911841677;2.63242543008;84
EMERCHICOURT;900;32.1;12.4;16.8;21.9;83;17;24600;69;NORD-PAS-DE-CALAIS;395;59;50.3117441641;3.25561088678;84
RADINGHEM-EN-WEPPES;1300;31.3;14.3;21.4;23.8;87;13;24500;62;NORD-PAS-DE-CALAIS;434;59;50.6281404058;2.89866058213;84
RATENELLE;400;31.1;12.5;17.2;24.6;88;12;23800;67;BOURGOGNE;431;71;46.5245517671;5.00102497581;84
FONTAINES-SUR-SAONE;6300;31.2;12.7;17.1;23.5;80;20;25500;57;RHONE-ALPES;449;69;45.8282811054;4.85664595594;84
LE TREMBLOIS;200;33.1;12.9;16.8;22.3;77;23;22100;67;FRANCHE-COMTE;430;70;47.3776500721;5.58714893059;84
NESCHERS;800;31.6;16.7;17.9;20.8;86;14;22600;68;AUVERGNE;429;63;45.5918097021;3.16530927442;84
MAYRES-SAVEL;100;30.9;16.3;18.7;23.0;86;14;24400;62;RHONE-ALPES;441;38;44.8864456242;5.71096631054;84
SAINT-HAON-LE-VIEUX;900;34.4;14.8;18.9;21.5;75;25;21100;67;RHONE-ALPES;419;42;46.0741993269;3.90464894951;84
ISSE;1800;34.0;13.6;15.2;21.2;87;13;24500;50;PAYS DE LA LOIRE;444;44;47.6173601577;-1.4560368491;84
ANZIN;13600;34.0;16.3;20.8;24.0;80;20;25600;56;NORD-PAS-DE-CALAIS;388;59;50.3753643424;3.51113183833;84
CHASEREY;100;32.7;17.3;17.0;20.7;74;26;25000;58;CHAMPAGNE-ARDENNE;418;10;47.9530607748;4.07447909576;84
LAVELINE-DEVANT-BRUYERES;700;31.3;13.2;15.7;23.4;83;17;25400;59;LORRAINE;422;88;48.1852298177;6.75828843679;84
RANDAN;1500;31.8;14.4;19.2;23.2;81;19;23100;67;AUVERGNE;426;63;46.0116125087;3.36364426205;84
LONDIGNY;300;30.0;14.6;20.1;24.0;80;20;25300;65;POITOU-CHARENTES;415;16;46.0846035892;0.140380117543;84
LANTIC;1500;33.2;15.2;21.9;21.6;79;21;21700;66;BRETAGNE;413;22;48.6040161525;-2.89860242151;84
MARGNY-AUX-CERISES;200;30.2;12.1;15.3;24.8;77;23;25800;66;PICARDIE;421;60;49.6724443709;2.86865853956;84
VENSAT;400;35.0;17.0;21.0;22.3;73;27;22700;67;AUVERGNE;402;63;46.0542113877;3.166015215;84
PLEMET;3000;34.3;15.6;20.0;23.5;87;13;25700;45;BRETAGNE;417;22;48.1860837585;-2.5859903316;84
NATTAGES;600;31.0;17.0;16.5;21.2;80;20;26000;61;RHONE-ALPES;410;01;45.723773707;5.74947693301;84
FONTAINE-SOUS-MONTDIDIER;100;34.8;16.4;20.0;20.4;90;10;19100;63;PICARDIE;440;80;49.6550724443;2.50539599355;84
BAINVILLE-SUR-MADON;1400;34.8;13.4;17.9;23.9;88;12;24300;48;LORRAINE;434;54;48.5900970896;6.08780771245;84
CAUCHY-A-LA-TOUR;3000;33.1;12.3;15.2;23.1;85;15;25400;60;NORD-PAS-DE-CALAIS;390;62;50.5047864537;2.44974030755;84
YZERNAY;1800;34.6;16.8;19.7;22.8;90;10;20800;59;PAYS DE LA LOIRE;446;49;47.0344970546;-0.696855883888;84
FONTENAY-DE-BOSSERY;100;32.5;12.4;18.3;23.1;81;19;24700;58;CHAMPAGNE-ARDENNE;414;10;48.4502901876;3.4644594068;84
CHENAILLER-MASCHEIX;200;32.6;14.0;20.0;24.5;72;28;23200;65;LIMOUSIN;442;19;45.0608264132;1.82435897673;84
MONTMARTIN-EN-GRAIGNES;600;33.3;16.6;19.2;23.6;72;28;24900;59;BASSE-NORMANDIE;425;50;49.2674470247;-1.16552700264;84
PAPLEUX;100;33.5;14.7;16.9;21.4;81;19;25600;50;PICARDIE;437;02;50.0169167744;3.88023781289;84
BARDOU;0;31.9;15.1;17.1;20.7;84;16;24900;59;AQUITAINE;438;24;44.7409359131;0.686088955421;84
ANTULLY;800;31.2;12.3;17.3;24.1;90;10;24500;60;BOURGOGNE;422;71;46.8926537731;4.40284807189;84
MONDESCOURT;300;31.2;17.9;20.7;24.3;80;20;25700;67;PICARDIE;396;60;49.6007632459;3.10933333116;84
LES CROZETS;200;33.3;14.5;17.1;24.5;73;27;23200;69;FRANCHE-COMTE;449;39;46.4635033757;5.80467882912;84
AVERTON;600;33.2;13.1;20.7;22.6;87;13;25200;53;PAYS DE LA LOIRE;426;53;48.3545540707;-0.210521518054;84
KALHAUSEN;900;35.0;12.3;20.7;22.8;80;20;21400;62;LORRAINE;401;57;49.0234490158;7.14457834236;84
CHELUN;300;33.3;14.4;18.6;23.8;84;16;22700;60;BRETAGNE;437;35;47.8550873481;-1.24349817887;84
HESMOND;200;33.5;14.5;17.9;24.7;76;24;23200;62;NORD-PAS-DE-CALAIS;412;62;50.4640913287;1.94222442678;84
POUSTHOMY;200;33.4;14.9;17.9;23.8;85;15;20400;68;MIDI-PYRENEES;434;12;43.8560294243;2.59842075923;84
BOIS-DE-LA-PIERRE;400;32.5;16.7;20.7;20.1;76;24;24600;57;MIDI-PYRENEES;448;31;43.3411967523;1.1619650342;84
SAVONNIERES;3000;32.9;12.1;20.9;20.3;75;25;21900;66;CENTRE;441;37;47.3465342134;0.558778925825;84
SOUSTELLE;200;32.5;17.5;20.7;20.6;75;25;25600;63;LANGUEDOC-ROUSSILLON;397;30;44.1724100561;4.00032794354;84
SAINT-PIERRE-COLAMINE;200;31.2;16.2;20.3;25.0;79;21;23300;65;AUVERGNE;446;63;45.5143028753;2.97474204258;84
